{
	"type": "FeatureCollection",
	"crs": { "type": "name", "properties": { "name": "urn:ogc:def:crs:OGC:1.3:CRS84" } },
	"features": [
	{ "type": "Feature", "properties": { "month": "Febuary", "day": "2/1", "hours": "00~02", "addr": "桃園市桃園區朝陽里鎮一街東興街", "dist": "桃園區", "grade": "A2" }, "geometry": { "type": "Point", "coordinates": [ 121.3139, 24.99852 ] } },
	{ "type": "Feature", "properties": { "month": "Febuary", "day": "2/1", "hours": "02~04", "addr": "桃園市蘆竹區南崁里中正路南竹路", "dist": "蘆竹區", "grade": "A2" }, "geometry": { "type": "Point", "coordinates": [ 121.2921, 25.04728 ] } },
	{ "type": "Feature", "properties": { "month": "Febuary", "day": "2/1", "hours": "04~06", "addr": "桃園市中壢區中華路一段復華一街", "dist": "中壢區", "grade": "A2" }, "geometry": { "type": "Point", "coordinates": [ 121.2493, 24.96932 ] } },
	{ "type": "Feature", "properties": { "month": "Febuary", "day": "2/1", "hours": "04~06", "addr": "桃園市桃園區文化里中華路民權路", "dist": "桃園區", "grade": "A2" }, "geometry": { "type": "Point", "coordinates": [ 121.3114, 24.99108 ] } },
	{ "type": "Feature", "properties": { "month": "Febuary", "day": "2/1", "hours": "04~06", "addr": "桃園市中壢區芝芭里中正路二段820668號前路燈", "dist": "中壢區", "grade": "A2" }, "geometry": { "type": "Point", "coordinates": [ 121.1947, 24.9783 ] } },
	{ "type": "Feature", "properties": { "month": "Febuary", "day": "2/1", "hours": "06~08", "addr": "桃園市中壢區興南里新生路427號", "dist": "中壢區", "grade": "A2" }, "geometry": { "type": "Point", "coordinates": [ 121.223, 24.96143 ] } },
	{ "type": "Feature", "properties": { "month": "Febuary", "day": "2/1", "hours": "06~08", "addr": "桃園市楊梅區楊梅里大成街楊新路", "dist": "楊梅區", "grade": "A2" }, "geometry": { "type": "Point", "coordinates": [ 121.1458, 24.91324 ] } },
	{ "type": "Feature", "properties": { "month": "Febuary", "day": "2/1", "hours": "06~08", "addr": "桃園市大園區橫峰里中正東路平安路旁", "dist": "大園區", "grade": "A2" }, "geometry": { "type": "Point", "coordinates": [ 121.2083, 25.04328 ] } },
	{ "type": "Feature", "properties": { "month": "Febuary", "day": "2/1", "hours": "06~08", "addr": "桃園市蘆竹區內厝里南山路二段436號", "dist": "蘆竹區", "grade": "A2" }, "geometry": { "type": "Point", "coordinates": [ 121.2856, 25.07144 ] } },
	{ "type": "Feature", "properties": { "month": "Febuary", "day": "2/1", "hours": "06~08", "addr": "桃園市八德區大同里廣福路130號", "dist": "八德區", "grade": "A2" }, "geometry": { "type": "Point", "coordinates": [ 121.2965, 24.95942 ] } },
	{ "type": "Feature", "properties": { "month": "Febuary", "day": "2/1", "hours": "06~08", "addr": "桃園市楊梅區新梅10街與金德路", "dist": "楊梅區", "grade": "A2" }, "geometry": { "type": "Point", "coordinates": [ 121.1367, 24.92421 ] } },
	{ "type": "Feature", "properties": { "month": "Febuary", "day": "2/1", "hours": "06~08", "addr": "桃園市蘆竹區海湖里海山西路海港路", "dist": "蘆竹區", "grade": "A2" }, "geometry": { "type": "Point", "coordinates": [ 121.2548, 25.10851 ] } },
	{ "type": "Feature", "properties": { "month": "Febuary", "day": "2/1", "hours": "06~08", "addr": "桃園市桃園區朝陽里民生路北興街", "dist": "桃園區", "grade": "A2" }, "geometry": { "type": "Point", "coordinates": [ 121.3109, 24.99923 ] } },
	{ "type": "Feature", "properties": { "month": "Febuary", "day": "2/1", "hours": "06~08", "addr": "桃園市桃園區吉安接與無名路", "dist": "桃園區", "grade": "A2" }, "geometry": { "type": "Point", "coordinates": [ 121.291, 25.00426 ] } },
	{ "type": "Feature", "properties": { "month": "Febuary", "day": "2/1", "hours": "06~08", "addr": "桃園市桃園區和平路民生路", "dist": "桃園區", "grade": "A2" }, "geometry": { "type": "Point", "coordinates": [ 121.3119, 24.99709 ] } },
	{ "type": "Feature", "properties": { "month": "Febuary", "day": "2/1", "hours": "06~08", "addr": "桃園市大溪區埔頂路一段372號", "dist": "大溪區", "grade": "A2" }, "geometry": { "type": "Point", "coordinates": [ 121.2755, 24.9035 ] } },
	{ "type": "Feature", "properties": { "month": "Febuary", "day": "2/1", "hours": "06~08", "addr": "桃園市桃園區武陵里重慶街復興路", "dist": "桃園區", "grade": "A2" }, "geometry": { "type": "Point", "coordinates": [ 121.3143, 24.9909 ] } },
	{ "type": "Feature", "properties": { "month": "Febuary", "day": "2/1", "hours": "06~08", "addr": "桃園市龜山區文明路29巷", "dist": "龜山區", "grade": "A2" }, "geometry": { "type": "Point", "coordinates": [ 121.3798, 25.06048 ] } },
	{ "type": "Feature", "properties": { "month": "Febuary", "day": "2/1", "hours": "06~08", "addr": "桃園市桃園區中正里守法路31巷正光路", "dist": "桃園區", "grade": "A2" }, "geometry": { "type": "Point", "coordinates": [ 121.2951, 24.99395 ] } },
	{ "type": "Feature", "properties": { "month": "Febuary", "day": "2/1", "hours": "06~08", "addr": "桃園市觀音區台61線北上平面道路與桃科2路路", "dist": "觀音區", "grade": "A2" }, "geometry": { "type": "Point", "coordinates": [ 121.0918, 25.05293 ] } },
	{ "type": "Feature", "properties": { "month": "Febuary", "day": "2/1", "hours": "06~08", "addr": "桃園市大溪區埔頂路與仁和路", "dist": "大溪區", "grade": "A2" }, "geometry": { "type": "Point", "coordinates": [ 121.2744, 24.90219 ] } },
	{ "type": "Feature", "properties": { "month": "Febuary", "day": "2/1", "hours": "06~08", "addr": "桃園市蘆竹區長安路二段27號", "dist": "蘆竹區", "grade": "A2" }, "geometry": { "type": "Point", "coordinates": [ 121.2871, 25.064 ] } },
	{ "type": "Feature", "properties": { "month": "Febuary", "day": "2/1", "hours": "06~08", "addr": "桃園市大園區田心里國際路一段131號", "dist": "大園區", "grade": "A2" }, "geometry": { "type": "Point", "coordinates": [ 121.1881, 25.06768 ] } },
	{ "type": "Feature", "properties": { "month": "Febuary", "day": "2/1", "hours": "08~10", "addr": "桃園市中壢區普強里環中東路幸福街", "dist": "中壢區", "grade": "A2" }, "geometry": { "type": "Point", "coordinates": [ 121.2365, 24.94906 ] } },
	{ "type": "Feature", "properties": { "month": "Febuary", "day": "2/1", "hours": "08~10", "addr": "桃園市八德區大發里福德一路177巷", "dist": "八德區", "grade": "A2" }, "geometry": { "type": "Point", "coordinates": [ 121.3285, 24.96452 ] } },
	{ "type": "Feature", "properties": { "month": "Febuary", "day": "2/1", "hours": "08~10", "addr": "桃園市桃園區龍祥里龍泉二街84號", "dist": "桃園區", "grade": "A2" }, "geometry": { "type": "Point", "coordinates": [ 121.269, 24.98015 ] } },
	{ "type": "Feature", "properties": { "month": "Febuary", "day": "2/1", "hours": "08~10", "addr": "桃園市桃園區龍壽里龍祥街龍泉五街", "dist": "桃園區", "grade": "A2" }, "geometry": { "type": "Point", "coordinates": [ 121.2711, 24.98228 ] } },
	{ "type": "Feature", "properties": { "month": "Febuary", "day": "2/1", "hours": "08~10", "addr": "桃園市八德區福興里廣興路仁德路", "dist": "八德區", "grade": "A2" }, "geometry": { "type": "Point", "coordinates": [ 121.2849, 24.93611 ] } },
	{ "type": "Feature", "properties": { "month": "Febuary", "day": "2/1", "hours": "08~10", "addr": "桃園市蘆竹區仁愛路一段21號", "dist": "蘆竹區", "grade": "A2" }, "geometry": { "type": "Point", "coordinates": [ 121.2949, 25.0511 ] } },
	{ "type": "Feature", "properties": { "month": "Febuary", "day": "2/1", "hours": "08~10", "addr": "桃園市中壢區德泉街與大德街", "dist": "中壢區", "grade": "A2" }, "geometry": { "type": "Point", "coordinates": [ 121.2283, 24.93512 ] } },
	{ "type": "Feature", "properties": { "month": "Febuary", "day": "2/1", "hours": "08~10", "addr": "桃園市中壢區內定里15鄰定寧路73號", "dist": "中壢區", "grade": "A2" }, "geometry": { "type": "Point", "coordinates": [ 121.2469, 24.99338 ] } },
	{ "type": "Feature", "properties": { "month": "Febuary", "day": "2/1", "hours": "08~10", "addr": "桃園市平鎮區育英路與義興路", "dist": "平鎮區", "grade": "A2" }, "geometry": { "type": "Point", "coordinates": [ 121.2121, 24.9509 ] } },
	{ "type": "Feature", "properties": { "month": "Febuary", "day": "2/1", "hours": "08~10", "addr": "桃園市桃園區雲林里樹林九街75巷樹林九街", "dist": "桃園區", "grade": "A2" }, "geometry": { "type": "Point", "coordinates": [ 121.3167, 24.98102 ] } },
	{ "type": "Feature", "properties": { "month": "Febuary", "day": "2/1", "hours": "08~10", "addr": "桃園市桃園區民生路博愛路", "dist": "桃園區", "grade": "A2" }, "geometry": { "type": "Point", "coordinates": [ 121.3123, 24.99612 ] } },
	{ "type": "Feature", "properties": { "month": "Febuary", "day": "2/1", "hours": "08~10", "addr": "桃園市桃園區桃鶯路大智路", "dist": "桃園區", "grade": "A2" }, "geometry": { "type": "Point", "coordinates": [ 121.323, 24.97664 ] } },
	{ "type": "Feature", "properties": { "month": "Febuary", "day": "2/1", "hours": "08~10", "addr": "桃園市大園區沙崙里台61線高架", "dist": "大園區", "grade": "A2" }, "geometry": { "type": "Point", "coordinates": [ 121.222, 25.10721 ] } },
	{ "type": "Feature", "properties": { "month": "Febuary", "day": "2/1", "hours": "08~10", "addr": "桃園市桃園區三民路三段永美街", "dist": "桃園區", "grade": "A2" }, "geometry": { "type": "Point", "coordinates": [ 121.3075, 24.98316 ] } },
	{ "type": "Feature", "properties": { "month": "Febuary", "day": "2/1", "hours": "08~10", "addr": "桃園市平鎮區民族路二段3號", "dist": "平鎮區", "grade": "A2" }, "geometry": { "type": "Point", "coordinates": [ 121.2083, 24.95694 ] } },
	{ "type": "Feature", "properties": { "month": "Febuary", "day": "2/1", "hours": "10~12", "addr": "桃園市平鎮區復旦路二段150巷文化街174巷", "dist": "平鎮區", "grade": "A2" }, "geometry": { "type": "Point", "coordinates": [ 121.2028, 24.95284 ] } },
	{ "type": "Feature", "properties": { "month": "Febuary", "day": "2/1", "hours": "10~12", "addr": "桃園市楊梅區高雙里民族路五段153號", "dist": "楊梅區", "grade": "A2" }, "geometry": { "type": "Point", "coordinates": [ 121.1734, 24.9587 ] } },
	{ "type": "Feature", "properties": { "month": "Febuary", "day": "2/1", "hours": "10~12", "addr": "桃園市中壢區隆德里龍勇路42巷產業道", "dist": "中壢區", "grade": "A2" }, "geometry": { "type": "Point", "coordinates": [ 121.2376, 24.93826 ] } },
	{ "type": "Feature", "properties": { "month": "Febuary", "day": "2/1", "hours": "10~12", "addr": "桃園市楊梅區楊梅里楊新路一段大模路", "dist": "楊梅區", "grade": "A2" }, "geometry": { "type": "Point", "coordinates": [ 121.1479, 24.9131 ] } },
	{ "type": "Feature", "properties": { "month": "Febuary", "day": "2/1", "hours": "10~12", "addr": "桃園市桃園區汴州里健行路42號", "dist": "桃園區", "grade": "A2" }, "geometry": { "type": "Point", "coordinates": [ 121.3089, 25.02175 ] } },
	{ "type": "Feature", "properties": { "month": "Febuary", "day": "2/1", "hours": "10~12", "addr": "桃園市八德區大安里興豐路長安街", "dist": "八德區", "grade": "A2" }, "geometry": { "type": "Point", "coordinates": [ 121.3194, 24.94882 ] } },
	{ "type": "Feature", "properties": { "month": "Febuary", "day": "2/1", "hours": "10~12", "addr": "桃園市龜山區11弄文化二路與華亞三路", "dist": "龜山區", "grade": "A2" }, "geometry": { "type": "Point", "coordinates": [ 121.3691, 25.05481 ] } },
	{ "type": "Feature", "properties": { "month": "Febuary", "day": "2/1", "hours": "10~12", "addr": "桃園市平鎮區復旦長安路", "dist": "平鎮區", "grade": "A2" }, "geometry": { "type": "Point", "coordinates": [ 121.1861, 24.94194 ] } },
	{ "type": "Feature", "properties": { "month": "Febuary", "day": "2/1", "hours": "10~12", "addr": "桃園市龍潭區民族路330號", "dist": "龍潭區", "grade": "A2" }, "geometry": { "type": "Point", "coordinates": [ 121.2344, 24.83768 ] } },
	{ "type": "Feature", "properties": { "month": "Febuary", "day": "2/1", "hours": "10~12", "addr": "桃園市八德區永豐里中華路貿聯", "dist": "八德區", "grade": "A2" }, "geometry": { "type": "Point", "coordinates": [ 121.2755, 24.98117 ] } },
	{ "type": "Feature", "properties": { "month": "Febuary", "day": "2/1", "hours": "12~14", "addr": "桃園市桃園區永安里埔新路中正三街", "dist": "桃園區", "grade": "A2" }, "geometry": { "type": "Point", "coordinates": [ 121.3069, 24.99988 ] } },
	{ "type": "Feature", "properties": { "month": "Febuary", "day": "2/1", "hours": "12~14", "addr": "桃園市桃園區龍壽街46巷", "dist": "桃園區", "grade": "A2" }, "geometry": { "type": "Point", "coordinates": [ 121.2693, 24.97889 ] } },
	{ "type": "Feature", "properties": { "month": "Febuary", "day": "2/1", "hours": "12~14", "addr": "桃園市平鎮區關爺北路21號", "dist": "平鎮區", "grade": "A2" }, "geometry": { "type": "Point", "coordinates": [ 121.2185, 24.9312 ] } },
	{ "type": "Feature", "properties": { "month": "Febuary", "day": "2/1", "hours": "12~14", "addr": "桃園市桃園區中埔一街與同德十街", "dist": "桃園區", "grade": "A2" }, "geometry": { "type": "Point", "coordinates": [ 121.2948, 25.01555 ] } },
	{ "type": "Feature", "properties": { "month": "Febuary", "day": "2/1", "hours": "12~14", "addr": "桃園市八德區興仁里中正北路廣興一路", "dist": "八德區", "grade": "A2" }, "geometry": { "type": "Point", "coordinates": [ 121.2834, 24.93191 ] } },
	{ "type": "Feature", "properties": { "month": "Febuary", "day": "2/1", "hours": "12~14", "addr": "桃園市平鎮區中豐路環南路", "dist": "平鎮區", "grade": "A2" }, "geometry": { "type": "Point", "coordinates": [ 121.2164, 24.94018 ] } },
	{ "type": "Feature", "properties": { "month": "Febuary", "day": "2/1", "hours": "12~14", "addr": "桃園市中壢區石頭里中山路88號", "dist": "中壢區", "grade": "A2" }, "geometry": { "type": "Point", "coordinates": [ 121.2264, 24.95519 ] } },
	{ "type": "Feature", "properties": { "month": "Febuary", "day": "2/1", "hours": "12~14", "addr": "桃園市大園區五權里中正東路二段497號", "dist": "大園區", "grade": "A2" }, "geometry": { "type": "Point", "coordinates": [ 121.2307, 25.02544 ] } },
	{ "type": "Feature", "properties": { "month": "Febuary", "day": "2/1", "hours": "12~14", "addr": "桃園市桃園區會稽里大有路大興路", "dist": "桃園區", "grade": "A2" }, "geometry": { "type": "Point", "coordinates": [ 121.3165, 25.01654 ] } },
	{ "type": "Feature", "properties": { "month": "Febuary", "day": "2/1", "hours": "12~14", "addr": "桃園市中壢區高鐵南路與文德路", "dist": "中壢區", "grade": "A2" }, "geometry": { "type": "Point", "coordinates": [ 121.2054, 24.97215 ] } },
	{ "type": "Feature", "properties": { "month": "Febuary", "day": "2/1", "hours": "12~14", "addr": "桃園市中壢區中正路487巷", "dist": "中壢區", "grade": "A2" }, "geometry": { "type": "Point", "coordinates": [ 121.2132, 24.95672 ] } },
	{ "type": "Feature", "properties": { "month": "Febuary", "day": "2/1", "hours": "12~14", "addr": "桃園市桃園區建新街建華三街", "dist": "桃園區", "grade": "A2" }, "geometry": { "type": "Point", "coordinates": [ 121.312, 24.98279 ] } },
	{ "type": "Feature", "properties": { "month": "Febuary", "day": "2/1", "hours": "12~14", "addr": "桃園市觀音區樹林里建國路民權路", "dist": "觀音區", "grade": "A2" }, "geometry": { "type": "Point", "coordinates": [ 121.1197, 25.04985 ] } },
	{ "type": "Feature", "properties": { "month": "Febuary", "day": "2/1", "hours": "12~14", "addr": "桃園市八德區永豐里建國路793號", "dist": "八德區", "grade": "A2" }, "geometry": { "type": "Point", "coordinates": [ 121.2907, 24.95148 ] } },
	{ "type": "Feature", "properties": { "month": "Febuary", "day": "2/1", "hours": "12~14", "addr": "桃園市龜山區復興一路與文三二街", "dist": "龜山區", "grade": "A2" }, "geometry": { "type": "Point", "coordinates": [ 121.3656, 25.01991 ] } },
	{ "type": "Feature", "properties": { "month": "Febuary", "day": "2/1", "hours": "12~14", "addr": "桃園市中壢區內壢里成章三街313巷", "dist": "中壢區", "grade": "A2" }, "geometry": { "type": "Point", "coordinates": [ 121.2549, 24.98426 ] } },
	{ "type": "Feature", "properties": { "month": "Febuary", "day": "2/1", "hours": "12~14", "addr": "桃園市八德區建國路419巷", "dist": "八德區", "grade": "A2" }, "geometry": { "type": "Point", "coordinates": [ 121.2872, 24.94108 ] } },
	{ "type": "Feature", "properties": { "month": "Febuary", "day": "2/1", "hours": "12~14", "addr": "桃園市桃園區福安里介壽路大林路", "dist": "桃園區", "grade": "A2" }, "geometry": { "type": "Point", "coordinates": [ 121.3111, 24.98689 ] } },
	{ "type": "Feature", "properties": { "month": "Febuary", "day": "2/1", "hours": "14~16", "addr": "桃園市桃園區中正五街155號", "dist": "桃園區", "grade": "A2" }, "geometry": { "type": "Point", "coordinates": [ 121.302, 25.00563 ] } },
	{ "type": "Feature", "properties": { "month": "Febuary", "day": "2/1", "hours": "14~16", "addr": "桃園市桃園區中路里國際路二段國強一街", "dist": "桃園區", "grade": "A2" }, "geometry": { "type": "Point", "coordinates": [ 121.2883, 24.99287 ] } },
	{ "type": "Feature", "properties": { "month": "Febuary", "day": "2/1", "hours": "14~16", "addr": "桃園市桃園區中正路與莊一街", "dist": "桃園區", "grade": "A2" }, "geometry": { "type": "Point", "coordinates": [ 121.3023, 25.00875 ] } },
	{ "type": "Feature", "properties": { "month": "Febuary", "day": "2/1", "hours": "14~16", "addr": "桃園市大園區海口里國際路三段655號", "dist": "大園區", "grade": "A2" }, "geometry": { "type": "Point", "coordinates": [ 121.2427, 25.10787 ] } },
	{ "type": "Feature", "properties": { "month": "Febuary", "day": "2/1", "hours": "14~16", "addr": "桃園市桃園區青田街保羅街", "dist": "桃園區", "grade": "A2" }, "geometry": { "type": "Point", "coordinates": [ 121.3085, 24.98386 ] } },
	{ "type": "Feature", "properties": { "month": "Febuary", "day": "2/1", "hours": "14~16", "addr": "桃園市中壢區幸福里延平路148號", "dist": "中壢區", "grade": "A2" }, "geometry": { "type": "Point", "coordinates": [ 121.229, 24.96307 ] } },
	{ "type": "Feature", "properties": { "month": "Febuary", "day": "2/1", "hours": "14~16", "addr": "桃園市桃園區萬壽路三段99巷", "dist": "桃園區", "grade": "A2" }, "geometry": { "type": "Point", "coordinates": [ 121.3215, 24.99075 ] } },
	{ "type": "Feature", "properties": { "month": "Febuary", "day": "2/1", "hours": "14~16", "addr": "桃園市桃園區中正路新生路", "dist": "桃園區", "grade": "A2" }, "geometry": { "type": "Point", "coordinates": [ 121.3095, 24.99713 ] } },
	{ "type": "Feature", "properties": { "month": "Febuary", "day": "2/1", "hours": "16~18", "addr": "桃園市中壢區中正路三段與高鐵南路", "dist": "中壢區", "grade": "A2" }, "geometry": { "type": "Point", "coordinates": [ 121.186, 24.98529 ] } },
	{ "type": "Feature", "properties": { "month": "Febuary", "day": "2/1", "hours": "16~18", "addr": "桃園市桃園區三民路三段建國路", "dist": "桃園區", "grade": "A2" }, "geometry": { "type": "Point", "coordinates": [ 121.3074, 24.98506 ] } },
	{ "type": "Feature", "properties": { "month": "Febuary", "day": "2/1", "hours": "16~18", "addr": "桃園市中壢區後寮里中山東路三段70號", "dist": "中壢區", "grade": "A2" }, "geometry": { "type": "Point", "coordinates": [ 121.2476, 24.94502 ] } },
	{ "type": "Feature", "properties": { "month": "Febuary", "day": "2/1", "hours": "16~18", "addr": "桃園市觀音區崙坪里8鄰忠愛路一段123巷231號", "dist": "觀音區", "grade": "A2" }, "geometry": { "type": "Point", "coordinates": [ 121.1634, 24.9957 ] } },
	{ "type": "Feature", "properties": { "month": "Febuary", "day": "2/1", "hours": "16~18", "addr": "桃園市桃園區民生路信光路", "dist": "桃園區", "grade": "A2" }, "geometry": { "type": "Point", "coordinates": [ 121.3086, 25.00636 ] } },
	{ "type": "Feature", "properties": { "month": "Febuary", "day": "2/1", "hours": "16~18", "addr": "桃園市平鎮區金陵路六段快速路二段986巷", "dist": "平鎮區", "grade": "A2" }, "geometry": { "type": "Point", "coordinates": [ 121.2315, 24.90413 ] } },
	{ "type": "Feature", "properties": { "month": "Febuary", "day": "2/1", "hours": "16~18", "addr": "桃園市桃園區大興西路3段與正光路", "dist": "桃園區", "grade": "A2" }, "geometry": { "type": "Point", "coordinates": [ 121.2852, 25.00041 ] } },
	{ "type": "Feature", "properties": { "month": "Febuary", "day": "2/1", "hours": "16~18", "addr": "桃園市桃園區龍祥里文中路國豐十街", "dist": "桃園區", "grade": "A2" }, "geometry": { "type": "Point", "coordinates": [ 121.2744, 24.99296 ] } },
	{ "type": "Feature", "properties": { "month": "Febuary", "day": "2/1", "hours": "16~18", "addr": "桃園市大溪區員林路三段54巷", "dist": "大溪區", "grade": "A2" }, "geometry": { "type": "Point", "coordinates": [ 121.2591, 24.87922 ] } },
	{ "type": "Feature", "properties": { "month": "Febuary", "day": "2/1", "hours": "16~18", "addr": "桃園市觀音區桃園市觀音區樹林里台61南下41K處閘道", "dist": "觀音區", "grade": "A2" }, "geometry": { "type": "Point", "coordinates": [ 121.119, 25.05921 ] } },
	{ "type": "Feature", "properties": { "month": "Febuary", "day": "2/1", "hours": "16~18", "addr": "桃園市平鎮區平安里南平路499號", "dist": "平鎮區", "grade": "A2" }, "geometry": { "type": "Point", "coordinates": [ 121.192, 24.92187 ] } },
	{ "type": "Feature", "properties": { "month": "Febuary", "day": "2/1", "hours": "16~18", "addr": "桃園市桃園區寶安里寶慶路332號", "dist": "桃園區", "grade": "A2" }, "geometry": { "type": "Point", "coordinates": [ 121.2911, 25.01669 ] } },
	{ "type": "Feature", "properties": { "month": "Febuary", "day": "2/1", "hours": "16~18", "addr": "桃園市桃園區慈文路503號", "dist": "桃園區", "grade": "A2" }, "geometry": { "type": "Point", "coordinates": [ 121.2981, 25.00348 ] } },
	{ "type": "Feature", "properties": { "month": "Febuary", "day": "2/1", "hours": "18~20", "addr": "桃園市龜山區長壽路419號對面外側車道", "dist": "龜山區", "grade": "A2" }, "geometry": { "type": "Point", "coordinates": [ 121.3356, 24.99738 ] } },
	{ "type": "Feature", "properties": { "month": "Febuary", "day": "2/1", "hours": "18~20", "addr": "桃園市桃園區中山東路自強路", "dist": "桃園區", "grade": "A2" }, "geometry": { "type": "Point", "coordinates": [ 121.3185, 24.99713 ] } },
	{ "type": "Feature", "properties": { "month": "Febuary", "day": "2/1", "hours": "18~20", "addr": "桃園市龍潭區竹龍路193號", "dist": "龍潭區", "grade": "A2" }, "geometry": { "type": "Point", "coordinates": [ 121.2016, 24.86765 ] } },
	{ "type": "Feature", "properties": { "month": "Febuary", "day": "2/1", "hours": "18~20", "addr": "桃園市中壢區自信里永福路916號", "dist": "中壢區", "grade": "A2" }, "geometry": { "type": "Point", "coordinates": [ 121.2543, 24.96216 ] } },
	{ "type": "Feature", "properties": { "month": "Febuary", "day": "2/1", "hours": "18~20", "addr": "桃園市龜山區文化二路與復興三路", "dist": "龜山區", "grade": "A2" }, "geometry": { "type": "Point", "coordinates": [ 121.3691, 25.05481 ] } },
	{ "type": "Feature", "properties": { "month": "Febuary", "day": "2/1", "hours": "18~20", "addr": "桃園市桃園區長美里中正路190號", "dist": "桃園區", "grade": "A2" }, "geometry": { "type": "Point", "coordinates": [ 121.3111, 24.99507 ] } },
	{ "type": "Feature", "properties": { "month": "Febuary", "day": "2/1", "hours": "18~20", "addr": "桃園市平鎮區新榮里新德街203號", "dist": "平鎮區", "grade": "A2" }, "geometry": { "type": "Point", "coordinates": [ 121.214, 24.94391 ] } },
	{ "type": "Feature", "properties": { "month": "Febuary", "day": "2/1", "hours": "18~20", "addr": "桃園市中壢區自忠二街天祥三街", "dist": "中壢區", "grade": "A2" }, "geometry": { "type": "Point", "coordinates": [ 121.2231, 24.94604 ] } },
	{ "type": "Feature", "properties": { "month": "Febuary", "day": "2/1", "hours": "18~20", "addr": "桃園市蘆竹區內厝里長興路一段201號", "dist": "蘆竹區", "grade": "A2" }, "geometry": { "type": "Point", "coordinates": [ 121.2914, 25.0647 ] } },
	{ "type": "Feature", "properties": { "month": "Febuary", "day": "2/1", "hours": "18~20", "addr": "桃園市中壢區自信里環中東路226號", "dist": "中壢區", "grade": "A2" }, "geometry": { "type": "Point", "coordinates": [ 121.2557, 24.96264 ] } },
	{ "type": "Feature", "properties": { "month": "Febuary", "day": "2/1", "hours": "18~20", "addr": "桃園市楊梅區瑞原里楊新路三段312號", "dist": "楊梅區", "grade": "A2" }, "geometry": { "type": "Point", "coordinates": [ 121.1232, 24.9343 ] } },
	{ "type": "Feature", "properties": { "month": "Febuary", "day": "2/1", "hours": "18~20", "addr": "桃園市觀音區大同里中山路二段729之1號", "dist": "觀音區", "grade": "A2" }, "geometry": { "type": "Point", "coordinates": [ 121.1372, 25.01223 ] } },
	{ "type": "Feature", "properties": { "month": "Febuary", "day": "2/1", "hours": "18~20", "addr": "桃園市蘆竹區中興路553號", "dist": "蘆竹區", "grade": "A2" }, "geometry": { "type": "Point", "coordinates": [ 121.255, 25.00905 ] } },
	{ "type": "Feature", "properties": { "month": "Febuary", "day": "2/1", "hours": "18~20", "addr": "桃園市桃園區南平路新埔八街", "dist": "桃園區", "grade": "A2" }, "geometry": { "type": "Point", "coordinates": [ 121.2995, 25.01862 ] } },
	{ "type": "Feature", "properties": { "month": "Febuary", "day": "2/1", "hours": "18~20", "addr": "桃園市桃園區國聖一街與宏昌六街", "dist": "桃園區", "grade": "A2" }, "geometry": { "type": "Point", "coordinates": [ 121.2885, 24.98604 ] } },
	{ "type": "Feature", "properties": { "month": "Febuary", "day": "2/1", "hours": "18~20", "addr": "桃園市龍潭區華南路一段與百福街", "dist": "龍潭區", "grade": "A2" }, "geometry": { "type": "Point", "coordinates": [ 121.2165, 24.86948 ] } },
	{ "type": "Feature", "properties": { "month": "Febuary", "day": "2/1", "hours": "18~20", "addr": "桃園市龜山區萬壽路二段1433號", "dist": "龜山區", "grade": "A2" }, "geometry": { "type": "Point", "coordinates": [ 121.3236, 24.99213 ] } },
	{ "type": "Feature", "properties": { "month": "Febuary", "day": "2/1", "hours": "18~20", "addr": "桃園市八德區介壽路二段金鎰街", "dist": "八德區", "grade": "A2" }, "geometry": { "type": "Point", "coordinates": [ 121.2975, 24.93429 ] } },
	{ "type": "Feature", "properties": { "month": "Febuary", "day": "2/1", "hours": "18~20", "addr": "桃園市大溪區員林路二段三元二街", "dist": "大溪區", "grade": "A2" }, "geometry": { "type": "Point", "coordinates": [ 121.2673, 24.88362 ] } },
	{ "type": "Feature", "properties": { "month": "Febuary", "day": "2/1", "hours": "18~20", "addr": "桃園市龜山區文化二路復興一路", "dist": "龜山區", "grade": "A2" }, "geometry": { "type": "Point", "coordinates": [ 121.3661, 25.0582 ] } },
	{ "type": "Feature", "properties": { "month": "Febuary", "day": "2/1", "hours": "18~20", "addr": "桃園市桃園區中正路南平路", "dist": "桃園區", "grade": "A2" }, "geometry": { "type": "Point", "coordinates": [ 121.2978, 25.01791 ] } },
	{ "type": "Feature", "properties": { "month": "Febuary", "day": "2/1", "hours": "18~20", "addr": "桃園市桃園區中山路南華街", "dist": "桃園區", "grade": "A2" }, "geometry": { "type": "Point", "coordinates": [ 121.3075, 24.99284 ] } },
	{ "type": "Feature", "properties": { "month": "Febuary", "day": "2/1", "hours": "18~20", "addr": "桃園市蘆竹區南興里南竹路二段109號", "dist": "蘆竹區", "grade": "A2" }, "geometry": { "type": "Point", "coordinates": [ 121.2846, 25.04121 ] } },
	{ "type": "Feature", "properties": { "month": "Febuary", "day": "2/1", "hours": "18~20", "addr": "桃園市平鎮區台66線上往觀音203公里", "dist": "平鎮區", "grade": "A2" }, "geometry": { "type": "Point", "coordinates": [ 121.2054, 24.9296 ] } },
	{ "type": "Feature", "properties": { "month": "Febuary", "day": "2/1", "hours": "20~22", "addr": "桃園市平鎮區平南里中庸路開封街", "dist": "平鎮區", "grade": "A2" }, "geometry": { "type": "Point", "coordinates": [ 121.2041, 24.91323 ] } },
	{ "type": "Feature", "properties": { "month": "Febuary", "day": "2/1", "hours": "20~22", "addr": "桃園市桃園區慈文里慈文路慈德街", "dist": "桃園區", "grade": "A2" }, "geometry": { "type": "Point", "coordinates": [ 121.2995, 25.00801 ] } },
	{ "type": "Feature", "properties": { "month": "Febuary", "day": "2/1", "hours": "20~22", "addr": "桃園市龍潭區北龍路268號", "dist": "龍潭區", "grade": "A2" }, "geometry": { "type": "Point", "coordinates": [ 121.2176, 24.86771 ] } },
	{ "type": "Feature", "properties": { "month": "Febuary", "day": "2/1", "hours": "20~22", "addr": "桃園市平鎮區平東路74號", "dist": "平鎮區", "grade": "A2" }, "geometry": { "type": "Point", "coordinates": [ 121.252, 24.91795 ] } },
	{ "type": "Feature", "properties": { "month": "Febuary", "day": "2/1", "hours": "20~22", "addr": "桃園市桃園區中信里中山路上海路", "dist": "桃園區", "grade": "A2" }, "geometry": { "type": "Point", "coordinates": [ 121.2841, 24.98777 ] } },
	{ "type": "Feature", "properties": { "month": "Febuary", "day": "2/1", "hours": "20~22", "addr": "桃園市楊梅區瑞溪里中山北路二段269號", "dist": "楊梅區", "grade": "A2" }, "geometry": { "type": "Point", "coordinates": [ 121.1722, 24.90926 ] } },
	{ "type": "Feature", "properties": { "month": "Febuary", "day": "2/1", "hours": "22~24", "addr": "桃園市八德區興豐路豐田路", "dist": "八德區", "grade": "A2" }, "geometry": { "type": "Point", "coordinates": [ 121.2895, 24.92984 ] } },
	{ "type": "Feature", "properties": { "month": "Febuary", "day": "2/1", "hours": "22~24", "addr": "桃園市龜山區光峰路長峰路", "dist": "龜山區", "grade": "A2" }, "geometry": { "type": "Point", "coordinates": [ 121.3427, 25.0047 ] } },
	{ "type": "Feature", "properties": { "month": "Febuary", "day": "2/1", "hours": "22~24", "addr": "桃園市桃園區春日路鎮撫街", "dist": "桃園區", "grade": "A2" }, "geometry": { "type": "Point", "coordinates": [ 121.3151, 24.9982 ] } },
	{ "type": "Feature", "properties": { "month": "Febuary", "day": "2/1", "hours": "22~24", "addr": "桃園市大溪區仁和路與永昌路", "dist": "大溪區", "grade": "A2" }, "geometry": { "type": "Point", "coordinates": [ 121.2761, 24.90067 ] } },
	{ "type": "Feature", "properties": { "month": "Febuary", "day": "2/1", "hours": "22~24", "addr": "桃園市龜山區南上路南美街", "dist": "龜山區", "grade": "A2" }, "geometry": { "type": "Point", "coordinates": [ 121.2964, 25.04782 ] } },
	{ "type": "Feature", "properties": { "month": "Febuary", "day": "2/1", "hours": "22~24", "addr": "桃園市中壢區榮安里新中北榮民南", "dist": "中壢區", "grade": "A2" }, "geometry": { "type": "Point", "coordinates": [ 121.2054, 24.97215 ] } },
	{ "type": "Feature", "properties": { "month": "Febuary", "day": "2/1", "hours": "22~24", "addr": "桃園市中壢區合圳北路合定路", "dist": "中壢區", "grade": "A2" }, "geometry": { "type": "Point", "coordinates": [ 121.2464, 24.98902 ] } },
	{ "type": "Feature", "properties": { "month": "Febuary", "day": "2/1", "hours": "22~24", "addr": "桃園市中壢區長沙路", "dist": "中壢區", "grade": "A2" }, "geometry": { "type": "Point", "coordinates": [ 121.2309, 24.9494 ] } },
	{ "type": "Feature", "properties": { "month": "Febuary", "day": "2/1", "hours": "22~24", "addr": "桃園市中壢區中園路育樂路", "dist": "中壢區", "grade": "A2" }, "geometry": { "type": "Point", "coordinates": [ 121.2363, 24.96849 ] } },
	{ "type": "Feature", "properties": { "month": "Febuary", "day": "2/1", "hours": "22~24", "addr": "桃園市觀音區廣興里濱海路與中山路", "dist": "觀音區", "grade": "A2" }, "geometry": { "type": "Point", "coordinates": [ 121.301, 24.99363 ] } },
	{ "type": "Feature", "properties": { "month": "Febuary", "day": "2/2", "hours": "00~02", "addr": "桃園市平鎮區北富里金陵路三段266巷", "dist": "平鎮區", "grade": "A2" }, "geometry": { "type": "Point", "coordinates": [ 121.2265, 24.92253 ] } },
	{ "type": "Feature", "properties": { "month": "Febuary", "day": "2/2", "hours": "00~02", "addr": "桃園市桃園區同德里南平路387號", "dist": "桃園區", "grade": "A2" }, "geometry": { "type": "Point", "coordinates": [ 121.2972, 25.01752 ] } },
	{ "type": "Feature", "properties": { "month": "Febuary", "day": "2/2", "hours": "00~02", "addr": "桃園市蘆竹區中正路南竹路", "dist": "蘆竹區", "grade": "A2" }, "geometry": { "type": "Point", "coordinates": [ 121.2921, 25.04728 ] } },
	{ "type": "Feature", "properties": { "month": "Febuary", "day": "2/2", "hours": "00~02", "addr": "桃園市八德區桃德路", "dist": "八德區", "grade": "A2" }, "geometry": { "type": "Point", "coordinates": [ 121.2968, 24.97171 ] } },
	{ "type": "Feature", "properties": { "month": "Febuary", "day": "2/2", "hours": "00~02", "addr": "桃園市八德區介壽路一段670號", "dist": "八德區", "grade": "A2" }, "geometry": { "type": "Point", "coordinates": [ 121.3007, 24.96647 ] } },
	{ "type": "Feature", "properties": { "month": "Febuary", "day": "2/2", "hours": "00~02", "addr": "桃園市大園區果林里三民路二段坑果路", "dist": "大園區", "grade": "A2" }, "geometry": { "type": "Point", "coordinates": [ 121.259, 25.07902 ] } },
	{ "type": "Feature", "properties": { "month": "Febuary", "day": "2/2", "hours": "00~02", "addr": "桃園市中壢區中堅里中山東路四段龍東路", "dist": "中壢區", "grade": "A2" }, "geometry": { "type": "Point", "coordinates": [ 121.2573, 24.9356 ] } },
	{ "type": "Feature", "properties": { "month": "Febuary", "day": "2/2", "hours": "06~08", "addr": "桃園市中壢區中原里忠孝路110號", "dist": "中壢區", "grade": "A2" }, "geometry": { "type": "Point", "coordinates": [ 121.2557, 24.97528 ] } },
	{ "type": "Feature", "properties": { "month": "Febuary", "day": "2/2", "hours": "06~08", "addr": "桃園市八德區中華路桃園醫院", "dist": "八德區", "grade": "A2" }, "geometry": { "type": "Point", "coordinates": [ 121.2762, 24.98179 ] } },
	{ "type": "Feature", "properties": { "month": "Febuary", "day": "2/2", "hours": "06~08", "addr": "桃園市桃園區龍山里中山路1496巷", "dist": "桃園區", "grade": "A2" }, "geometry": { "type": "Point", "coordinates": [ 121.267, 24.97588 ] } },
	{ "type": "Feature", "properties": { "month": "Febuary", "day": "2/2", "hours": "06~08", "addr": "桃園市中壢區興南里新生路461巷", "dist": "中壢區", "grade": "A2" }, "geometry": { "type": "Point", "coordinates": [ 121.223, 24.96143 ] } },
	{ "type": "Feature", "properties": { "month": "Febuary", "day": "2/2", "hours": "06~08", "addr": "桃園市平鎮區復旦路三段111巷", "dist": "平鎮區", "grade": "A2" }, "geometry": { "type": "Point", "coordinates": [ 121.1964, 24.94247 ] } },
	{ "type": "Feature", "properties": { "month": "Febuary", "day": "2/2", "hours": "06~08", "addr": "桃園市楊梅區楊湖路三段640巷富豐三路二段", "dist": "楊梅區", "grade": "A2" }, "geometry": { "type": "Point", "coordinates": [ 121.078, 24.91777 ] } },
	{ "type": "Feature", "properties": { "month": "Febuary", "day": "2/2", "hours": "06~08", "addr": "桃園市桃園區國際路一段413巷", "dist": "桃園區", "grade": "A2" }, "geometry": { "type": "Point", "coordinates": [ 121.2891, 24.97093 ] } },
	{ "type": "Feature", "properties": { "month": "Febuary", "day": "2/2", "hours": "06~08", "addr": "桃園市桃園區中信里國際路二段207巷國際路二段", "dist": "桃園區", "grade": "A2" }, "geometry": { "type": "Point", "coordinates": [ 121.2861, 25.00634 ] } },
	{ "type": "Feature", "properties": { "month": "Febuary", "day": "2/2", "hours": "06~08", "addr": "桃園市蘆竹區中山路125巷福祿一街", "dist": "蘆竹區", "grade": "A2" }, "geometry": { "type": "Point", "coordinates": [ 121.2969, 25.0559 ] } },
	{ "type": "Feature", "properties": { "month": "Febuary", "day": "2/2", "hours": "06~08", "addr": "桃園市八德區福興里仁德路建國路", "dist": "八德區", "grade": "A2" }, "geometry": { "type": "Point", "coordinates": [ 121.2876, 24.9349 ] } },
	{ "type": "Feature", "properties": { "month": "Febuary", "day": "2/2", "hours": "06~08", "addr": "桃園市中壢區新生路三段25號對面", "dist": "中壢區", "grade": "A2" }, "geometry": { "type": "Point", "coordinates": [ 121.2217, 24.98783 ] } },
	{ "type": "Feature", "properties": { "month": "Febuary", "day": "2/2", "hours": "08~10", "addr": "桃園市龜山區忠義路二段322號", "dist": "龜山區", "grade": "A2" }, "geometry": { "type": "Point", "coordinates": [ 121.3589, 25.04659 ] } },
	{ "type": "Feature", "properties": { "month": "Febuary", "day": "2/2", "hours": "08~10", "addr": "桃園市桃園區春日路民光東路", "dist": "桃園區", "grade": "A2" }, "geometry": { "type": "Point", "coordinates": [ 121.3122, 25.00622 ] } },
	{ "type": "Feature", "properties": { "month": "Febuary", "day": "2/2", "hours": "08~10", "addr": "桃園市大園區田心里新興路269巷仁德路", "dist": "大園區", "grade": "A2" }, "geometry": { "type": "Point", "coordinates": [ 121.1975, 25.05856 ] } },
	{ "type": "Feature", "properties": { "month": "Febuary", "day": "2/2", "hours": "08~10", "addr": "桃園市蘆竹區大竹北路90之66號", "dist": "蘆竹區", "grade": "A2" }, "geometry": { "type": "Point", "coordinates": [ 121.2534, 25.03177 ] } },
	{ "type": "Feature", "properties": { "month": "Febuary", "day": "2/2", "hours": "08~10", "addr": "桃園市中壢區中豐北路民權路", "dist": "中壢區", "grade": "A1" }, "geometry": { "type": "Point", "coordinates": [ 121.2091, 24.98834 ] } },
	{ "type": "Feature", "properties": { "month": "Febuary", "day": "2/2", "hours": "08~10", "addr": "桃園市八德區大發里福德一路177巷電桿八德幹29號", "dist": "八德區", "grade": "A2" }, "geometry": { "type": "Point", "coordinates": [ 121.3285, 24.96452 ] } },
	{ "type": "Feature", "properties": { "month": "Febuary", "day": "2/2", "hours": "08~10", "addr": "桃園市中壢區延平路88號", "dist": "中壢區", "grade": "A2" }, "geometry": { "type": "Point", "coordinates": [ 121.2307, 24.9635 ] } },
	{ "type": "Feature", "properties": { "month": "Febuary", "day": "2/2", "hours": "08~10", "addr": "桃園市平鎮區新貴里新貴街與新貴南街路", "dist": "平鎮區", "grade": "A2" }, "geometry": { "type": "Point", "coordinates": [ 121.21, 24.93451 ] } },
	{ "type": "Feature", "properties": { "month": "Febuary", "day": "2/2", "hours": "08~10", "addr": "桃園市觀音區樹林里工業四路與經建一路", "dist": "觀音區", "grade": "A2" }, "geometry": { "type": "Point", "coordinates": [ 121.301, 24.99363 ] } },
	{ "type": "Feature", "properties": { "month": "Febuary", "day": "2/2", "hours": "08~10", "addr": "桃園市桃園區汴洲里春日路1526號", "dist": "桃園區", "grade": "A2" }, "geometry": { "type": "Point", "coordinates": [ 121.3044, 25.03029 ] } },
	{ "type": "Feature", "properties": { "month": "Febuary", "day": "2/2", "hours": "08~10", "addr": "桃園市中壢區中園路與桃圳路", "dist": "中壢區", "grade": "A2" }, "geometry": { "type": "Point", "coordinates": [ 121.2363, 24.97896 ] } },
	{ "type": "Feature", "properties": { "month": "Febuary", "day": "2/2", "hours": "08~10", "addr": "桃園市中壢區水尾里新生路576號", "dist": "中壢區", "grade": "A2" }, "geometry": { "type": "Point", "coordinates": [ 121.2243, 24.96994 ] } },
	{ "type": "Feature", "properties": { "month": "Febuary", "day": "2/2", "hours": "08~10", "addr": "桃園市中壢區中正路260號", "dist": "中壢區", "grade": "A2" }, "geometry": { "type": "Point", "coordinates": [ 121.2192, 24.95537 ] } },
	{ "type": "Feature", "properties": { "month": "Febuary", "day": "2/2", "hours": "10~12", "addr": "桃園市平鎮區復興里復興路6號", "dist": "平鎮區", "grade": "A2" }, "geometry": { "type": "Point", "coordinates": [ 121.2064, 24.9548 ] } },
	{ "type": "Feature", "properties": { "month": "Febuary", "day": "2/2", "hours": "10~12", "addr": "桃園市桃園區成功里自強路鎮二街", "dist": "桃園區", "grade": "A2" }, "geometry": { "type": "Point", "coordinates": [ 121.3174, 24.99996 ] } },
	{ "type": "Feature", "properties": { "month": "Febuary", "day": "2/2", "hours": "10~12", "addr": "桃園市大園區南港里大觀路大工路", "dist": "大園區", "grade": "A2" }, "geometry": { "type": "Point", "coordinates": [ 121.1813, 25.06444 ] } },
	{ "type": "Feature", "properties": { "month": "Febuary", "day": "2/2", "hours": "10~12", "addr": "桃園市八德區大勇里忠勇五街忠勇三街", "dist": "八德區", "grade": "A2" }, "geometry": { "type": "Point", "coordinates": [ 121.3046, 24.96691 ] } },
	{ "type": "Feature", "properties": { "month": "Febuary", "day": "2/2", "hours": "10~12", "addr": "桃園市桃園區桃鶯路樹仁三街", "dist": "桃園區", "grade": "A2" }, "geometry": { "type": "Point", "coordinates": [ 121.3238, 24.97514 ] } },
	{ "type": "Feature", "properties": { "month": "Febuary", "day": "2/2", "hours": "10~12", "addr": "桃園市桃園區泰山里玉山街80巷", "dist": "桃園區", "grade": "A2" }, "geometry": { "type": "Point", "coordinates": [ 121.3006, 24.98702 ] } },
	{ "type": "Feature", "properties": { "month": "Febuary", "day": "2/2", "hours": "10~12", "addr": "桃園市桃園區青溪里三民路一段177號", "dist": "桃園區", "grade": "A2" }, "geometry": { "type": "Point", "coordinates": [ 121.3183, 25.00088 ] } },
	{ "type": "Feature", "properties": { "month": "Febuary", "day": "2/2", "hours": "10~12", "addr": "桃園市中壢區後寮里龍興路688號", "dist": "中壢區", "grade": "A2" }, "geometry": { "type": "Point", "coordinates": [ 121.2458, 24.94556 ] } },
	{ "type": "Feature", "properties": { "month": "Febuary", "day": "2/2", "hours": "10~12", "addr": "桃園市八德區大信里介壽路二段685巷大興路", "dist": "八德區", "grade": "A2" }, "geometry": { "type": "Point", "coordinates": [ 121.3013, 24.93951 ] } },
	{ "type": "Feature", "properties": { "month": "Febuary", "day": "2/2", "hours": "12~14", "addr": "桃園市桃園區大興里春日路雙峰路", "dist": "桃園區", "grade": "A2" }, "geometry": { "type": "Point", "coordinates": [ 121.3099, 25.01226 ] } },
	{ "type": "Feature", "properties": { "month": "Febuary", "day": "2/2", "hours": "12~14", "addr": "桃園市中壢區民族路與正光路", "dist": "中壢區", "grade": "A2" }, "geometry": { "type": "Point", "coordinates": [ 121.207, 24.95746 ] } },
	{ "type": "Feature", "properties": { "month": "Febuary", "day": "2/2", "hours": "12~14", "addr": "桃園市中壢區南園二路85號", "dist": "中壢區", "grade": "A2" }, "geometry": { "type": "Point", "coordinates": [ 121.2337, 24.97165 ] } },
	{ "type": "Feature", "properties": { "month": "Febuary", "day": "2/2", "hours": "12~14", "addr": "桃園市八德區大慶里廣福路30號", "dist": "八德區", "grade": "A2" }, "geometry": { "type": "Point", "coordinates": [ 121.2984, 24.95901 ] } },
	{ "type": "Feature", "properties": { "month": "Febuary", "day": "2/2", "hours": "12~14", "addr": "桃園市桃園區春日路民光東路", "dist": "桃園區", "grade": "A2" }, "geometry": { "type": "Point", "coordinates": [ 121.3122, 25.00622 ] } },
	{ "type": "Feature", "properties": { "month": "Febuary", "day": "2/2", "hours": "12~14", "addr": "桃園市桃園區長安里中正五街271號", "dist": "桃園區", "grade": "A2" }, "geometry": { "type": "Point", "coordinates": [ 121.3025, 25.00232 ] } },
	{ "type": "Feature", "properties": { "month": "Febuary", "day": "2/2", "hours": "12~14", "addr": "桃園市中壢區中山東路三段525號對面", "dist": "中壢區", "grade": "A2" }, "geometry": { "type": "Point", "coordinates": [ 121.2544, 24.93704 ] } },
	{ "type": "Feature", "properties": { "month": "Febuary", "day": "2/2", "hours": "12~14", "addr": "桃園市龜山區復興三路3之3號", "dist": "龜山區", "grade": "A2" }, "geometry": { "type": "Point", "coordinates": [ 121.3758, 25.05469 ] } },
	{ "type": "Feature", "properties": { "month": "Febuary", "day": "2/2", "hours": "12~14", "addr": "桃園市平鎮區延平路環南路", "dist": "平鎮區", "grade": "A2" }, "geometry": { "type": "Point", "coordinates": [ 121.2084, 24.94503 ] } },
	{ "type": "Feature", "properties": { "month": "Febuary", "day": "2/2", "hours": "12~14", "addr": "桃園市蘆竹區五福路90號", "dist": "蘆竹區", "grade": "A2" }, "geometry": { "type": "Point", "coordinates": [ 121.2936, 25.05029 ] } },
	{ "type": "Feature", "properties": { "month": "Febuary", "day": "2/2", "hours": "12~14", "addr": "桃園市平鎮區廣達里廣平路廣成街", "dist": "平鎮區", "grade": "A2" }, "geometry": { "type": "Point", "coordinates": [ 121.2087, 24.95459 ] } },
	{ "type": "Feature", "properties": { "month": "Febuary", "day": "2/2", "hours": "12~14", "addr": "桃園市桃園區三民路二段288號", "dist": "桃園區", "grade": "A2" }, "geometry": { "type": "Point", "coordinates": [ 121.3095, 24.99973 ] } },
	{ "type": "Feature", "properties": { "month": "Febuary", "day": "2/2", "hours": "12~14", "addr": "桃園市中壢區月眉路一段116號", "dist": "中壢區", "grade": "A2" }, "geometry": { "type": "Point", "coordinates": [ 121.1798, 24.99316 ] } },
	{ "type": "Feature", "properties": { "month": "Febuary", "day": "2/2", "hours": "14~16", "addr": "桃園市中壢區永福里南園二路86號", "dist": "中壢區", "grade": "A2" }, "geometry": { "type": "Point", "coordinates": [ 121.2335, 24.97181 ] } },
	{ "type": "Feature", "properties": { "month": "Febuary", "day": "2/2", "hours": "14~16", "addr": "桃園市平鎮區東安里龍南路與平等路", "dist": "平鎮區", "grade": "A2" }, "geometry": { "type": "Point", "coordinates": [ 121.2528, 24.92043 ] } },
	{ "type": "Feature", "properties": { "month": "Febuary", "day": "2/2", "hours": "14~16", "addr": "桃園市桃園區中和里中正路北新街", "dist": "桃園區", "grade": "A2" }, "geometry": { "type": "Point", "coordinates": [ 121.3092, 24.99767 ] } },
	{ "type": "Feature", "properties": { "month": "Febuary", "day": "2/2", "hours": "14~16", "addr": "桃園市中壢區內定里中園路二段501號", "dist": "中壢區", "grade": "A2" }, "geometry": { "type": "Point", "coordinates": [ 121.2292, 25.00315 ] } },
	{ "type": "Feature", "properties": { "month": "Febuary", "day": "2/2", "hours": "14~16", "addr": "桃園市龜山區中興路247號", "dist": "龜山區", "grade": "A2" }, "geometry": { "type": "Point", "coordinates": [ 121.3334, 24.99071 ] } },
	{ "type": "Feature", "properties": { "month": "Febuary", "day": "2/2", "hours": "16~18", "addr": "桃園市桃園區瑞慶里莊敬路二段2號", "dist": "桃園區", "grade": "A2" }, "geometry": { "type": "Point", "coordinates": [ 121.2864, 25.01936 ] } },
	{ "type": "Feature", "properties": { "month": "Febuary", "day": "2/2", "hours": "16~18", "addr": "桃園市桃園區豐林里介壽路保羅街", "dist": "桃園區", "grade": "A2" }, "geometry": { "type": "Point", "coordinates": [ 121.3088, 24.98293 ] } },
	{ "type": "Feature", "properties": { "month": "Febuary", "day": "2/2", "hours": "16~18", "addr": "桃園市觀音區樹林里國建三路與玉林路", "dist": "觀音區", "grade": "A2" }, "geometry": { "type": "Point", "coordinates": [ 121.1082, 25.0594 ] } },
	{ "type": "Feature", "properties": { "month": "Febuary", "day": "2/2", "hours": "16~18", "addr": "桃園市桃園區中德里國際路一段678巷電線桿", "dist": "桃園區", "grade": "A2" }, "geometry": { "type": "Point", "coordinates": [ 121.2891, 24.97272 ] } },
	{ "type": "Feature", "properties": { "month": "Febuary", "day": "2/2", "hours": "16~18", "addr": "桃園市八德區富城街永興街", "dist": "八德區", "grade": "A2" }, "geometry": { "type": "Point", "coordinates": [ 121.2739, 24.97732 ] } },
	{ "type": "Feature", "properties": { "month": "Febuary", "day": "2/2", "hours": "16~18", "addr": "桃園市中壢區普仁里三和三街大勇一街", "dist": "中壢區", "grade": "A2" }, "geometry": { "type": "Point", "coordinates": [ 121.2405, 24.95434 ] } },
	{ "type": "Feature", "properties": { "month": "Febuary", "day": "2/2", "hours": "16~18", "addr": "桃園市龍潭區龍平路296號", "dist": "龍潭區", "grade": "A2" }, "geometry": { "type": "Point", "coordinates": [ 121.254, 24.92891 ] } },
	{ "type": "Feature", "properties": { "month": "Febuary", "day": "2/2", "hours": "16~18", "addr": "桃園市龜山區萬壽路二段6巷", "dist": "龜山區", "grade": "A2" }, "geometry": { "type": "Point", "coordinates": [ 121.3648, 25.00246 ] } },
	{ "type": "Feature", "properties": { "month": "Febuary", "day": "2/2", "hours": "16~18", "addr": "桃園市中壢區龍岡路2段111號", "dist": "中壢區", "grade": "A2" }, "geometry": { "type": "Point", "coordinates": [ 121.2293, 24.94558 ] } },
	{ "type": "Feature", "properties": { "month": "Febuary", "day": "2/2", "hours": "16~18", "addr": "桃園市中壢區中山東路2段422巷", "dist": "中壢區", "grade": "A2" }, "geometry": { "type": "Point", "coordinates": [ 121.2431, 24.94692 ] } },
	{ "type": "Feature", "properties": { "month": "Febuary", "day": "2/2", "hours": "16~18", "addr": "桃園市中壢區六合路75號", "dist": "中壢區", "grade": "A2" }, "geometry": { "type": "Point", "coordinates": [ 121.1381, 25.04144 ] } },
	{ "type": "Feature", "properties": { "month": "Febuary", "day": "2/2", "hours": "16~18", "addr": "桃園市中壢區仁祥里華勛街163巷華安路", "dist": "中壢區", "grade": "A2" }, "geometry": { "type": "Point", "coordinates": [ 121.2618, 24.9504 ] } },
	{ "type": "Feature", "properties": { "month": "Febuary", "day": "2/2", "hours": "18~20", "addr": "桃園市龍潭區中正路三林段234號", "dist": "龍潭區", "grade": "A2" }, "geometry": { "type": "Point", "coordinates": [ 121.2293, 24.84972 ] } },
	{ "type": "Feature", "properties": { "month": "Febuary", "day": "2/2", "hours": "18~20", "addr": "桃園市中壢區志廣路五福街", "dist": "中壢區", "grade": "A2" }, "geometry": { "type": "Point", "coordinates": [ 121.2059, 24.96148 ] } },
	{ "type": "Feature", "properties": { "month": "Febuary", "day": "2/2", "hours": "18~20", "addr": "桃園市桃園區民生里民生路157號", "dist": "桃園區", "grade": "A2" }, "geometry": { "type": "Point", "coordinates": [ 121.3129, 24.99413 ] } },
	{ "type": "Feature", "properties": { "month": "Febuary", "day": "2/2", "hours": "18~20", "addr": "桃園市桃園區春日里春日路912號", "dist": "桃園區", "grade": "A2" }, "geometry": { "type": "Point", "coordinates": [ 121.3091, 25.01635 ] } },
	{ "type": "Feature", "properties": { "month": "Febuary", "day": "2/2", "hours": "18~20", "addr": "桃園市龜山區萬壽路一段50巷2號", "dist": "龜山區", "grade": "A2" }, "geometry": { "type": "Point", "coordinates": [ 121.3922, 25.01629 ] } },
	{ "type": "Feature", "properties": { "month": "Febuary", "day": "2/2", "hours": "18~20", "addr": "桃園市中壢區中央里中央東路和平街", "dist": "中壢區", "grade": "A2" }, "geometry": { "type": "Point", "coordinates": [ 121.2266, 24.95614 ] } },
	{ "type": "Feature", "properties": { "month": "Febuary", "day": "2/2", "hours": "18~20", "addr": "桃園市平鎮區義民里環南路平安南街", "dist": "平鎮區", "grade": "A2" }, "geometry": { "type": "Point", "coordinates": [ 121.2075, 24.94602 ] } },
	{ "type": "Feature", "properties": { "month": "Febuary", "day": "2/2", "hours": "18~20", "addr": "桃園市龜山區忠義路二段415號", "dist": "龜山區", "grade": "A2" }, "geometry": { "type": "Point", "coordinates": [ 121.3592, 25.05075 ] } },
	{ "type": "Feature", "properties": { "month": "Febuary", "day": "2/2", "hours": "18~20", "addr": "桃園市大園區田心里大觀路346號", "dist": "大園區", "grade": "A2" }, "geometry": { "type": "Point", "coordinates": [ 121.1879, 25.06575 ] } },
	{ "type": "Feature", "properties": { "month": "Febuary", "day": "2/2", "hours": "18~20", "addr": "桃園市龜山區振興路729號對面", "dist": "龜山區", "grade": "A2" }, "geometry": { "type": "Point", "coordinates": [ 121.3618, 25.01652 ] } },
	{ "type": "Feature", "properties": { "month": "Febuary", "day": "2/2", "hours": "18~20", "addr": "桃園市平鎮區北富里金陵路三段121號", "dist": "平鎮區", "grade": "A2" }, "geometry": { "type": "Point", "coordinates": [ 121.2279, 24.92745 ] } },
	{ "type": "Feature", "properties": { "month": "Febuary", "day": "2/2", "hours": "18~20", "addr": "桃園市桃園區東門里成功路二段春日路", "dist": "桃園區", "grade": "A2" }, "geometry": { "type": "Point", "coordinates": [ 121.3167, 24.99412 ] } },
	{ "type": "Feature", "properties": { "month": "Febuary", "day": "2/2", "hours": "18~20", "addr": "桃園市平鎮區南勢里中豐路三興路", "dist": "平鎮區", "grade": "A2" }, "geometry": { "type": "Point", "coordinates": [ 121.2117, 24.90777 ] } },
	{ "type": "Feature", "properties": { "month": "Febuary", "day": "2/2", "hours": "18~20", "addr": "桃園市大園區果林里三民路二段果林路", "dist": "大園區", "grade": "A2" }, "geometry": { "type": "Point", "coordinates": [ 121.2574, 25.08159 ] } },
	{ "type": "Feature", "properties": { "month": "Febuary", "day": "2/2", "hours": "18~20", "addr": "桃園市八德區竹園里新興路1251巷", "dist": "八德區", "grade": "A2" }, "geometry": { "type": "Point", "coordinates": [ 121.2705, 24.93722 ] } },
	{ "type": "Feature", "properties": { "month": "Febuary", "day": "2/2", "hours": "20~22", "addr": "桃園市桃園區春日路鎮撫街", "dist": "桃園區", "grade": "A2" }, "geometry": { "type": "Point", "coordinates": [ 121.3151, 24.9982 ] } },
	{ "type": "Feature", "properties": { "month": "Febuary", "day": "2/2", "hours": "20~22", "addr": "桃園市桃園區信光里中正路662號", "dist": "桃園區", "grade": "A2" }, "geometry": { "type": "Point", "coordinates": [ 121.3042, 25.00594 ] } },
	{ "type": "Feature", "properties": { "month": "Febuary", "day": "2/2", "hours": "20~22", "addr": "桃園市八德區新興路1031巷", "dist": "八德區", "grade": "A2" }, "geometry": { "type": "Point", "coordinates": [ 121.275, 24.93973 ] } },
	{ "type": "Feature", "properties": { "month": "Febuary", "day": "2/2", "hours": "20~22", "addr": "桃園市平鎮區新榮里新榮路385號", "dist": "平鎮區", "grade": "A2" }, "geometry": { "type": "Point", "coordinates": [ 121.2122, 24.94349 ] } },
	{ "type": "Feature", "properties": { "month": "Febuary", "day": "2/2", "hours": "20~22", "addr": "桃園市八德區陸光里福國北街仁愛街", "dist": "八德區", "grade": "A2" }, "geometry": { "type": "Point", "coordinates": [ 121.2954, 24.96151 ] } },
	{ "type": "Feature", "properties": { "month": "Febuary", "day": "2/2", "hours": "20~22", "addr": "桃園市中壢區忠義里中華路一段長興街", "dist": "中壢區", "grade": "A2" }, "geometry": { "type": "Point", "coordinates": [ 121.2507, 24.96944 ] } },
	{ "type": "Feature", "properties": { "month": "Febuary", "day": "2/2", "hours": "20~22", "addr": "桃園市平鎮區新光台66路", "dist": "平鎮區", "grade": "A2" }, "geometry": { "type": "Point", "coordinates": [ 121.2054, 24.9296 ] } },
	{ "type": "Feature", "properties": { "month": "Febuary", "day": "2/2", "hours": "22~24", "addr": "桃園市桃園區大同路重慶街", "dist": "桃園區", "grade": "A2" }, "geometry": { "type": "Point", "coordinates": [ 121.3145, 24.99026 ] } },
	{ "type": "Feature", "properties": { "month": "Febuary", "day": "2/2", "hours": "22~24", "addr": "桃園市龍潭區中原路二段378巷", "dist": "龍潭區", "grade": "A2" }, "geometry": { "type": "Point", "coordinates": [ 121.194, 24.83802 ] } },
	{ "type": "Feature", "properties": { "month": "Febuary", "day": "2/3", "hours": "00~02", "addr": "桃園市桃園區建國里大林路延平路", "dist": "桃園區", "grade": "A2" }, "geometry": { "type": "Point", "coordinates": [ 121.3141, 24.98764 ] } },
	{ "type": "Feature", "properties": { "month": "Febuary", "day": "2/3", "hours": "00~02", "addr": "桃園市中壢區志廣路38號對面", "dist": "中壢區", "grade": "A2" }, "geometry": { "type": "Point", "coordinates": [ 121.2087, 24.96035 ] } },
	{ "type": "Feature", "properties": { "month": "Febuary", "day": "2/3", "hours": "06~08", "addr": "桃園市大園區北港里大觀路環區北路", "dist": "大園區", "grade": "A2" }, "geometry": { "type": "Point", "coordinates": [ 121.1775, 25.06281 ] } },
	{ "type": "Feature", "properties": { "month": "Febuary", "day": "2/3", "hours": "06~08", "addr": "桃園市龍潭區中興路125號", "dist": "龍潭區", "grade": "A2" }, "geometry": { "type": "Point", "coordinates": [ 121.2375, 24.87497 ] } },
	{ "type": "Feature", "properties": { "month": "Febuary", "day": "2/3", "hours": "06~08", "addr": "桃園市桃園區中興里力行路保定六街", "dist": "桃園區", "grade": "A2" }, "geometry": { "type": "Point", "coordinates": [ 121.2988, 24.99976 ] } },
	{ "type": "Feature", "properties": { "month": "Febuary", "day": "2/3", "hours": "06~08", "addr": "桃園市桃園區慈文里永安路慈光街", "dist": "桃園區", "grade": "A2" }, "geometry": { "type": "Point", "coordinates": [ 121.2966, 25.00398 ] } },
	{ "type": "Feature", "properties": { "month": "Febuary", "day": "2/3", "hours": "06~08", "addr": "桃園市平鎮區復旦里民族路二段275號", "dist": "平鎮區", "grade": "A2" }, "geometry": { "type": "Point", "coordinates": [ 121.2014, 24.95673 ] } },
	{ "type": "Feature", "properties": { "month": "Febuary", "day": "2/3", "hours": "06~08", "addr": "桃園市大溪區信義路39號", "dist": "大溪區", "grade": "A2" }, "geometry": { "type": "Point", "coordinates": [ 121.2902, 24.88458 ] } },
	{ "type": "Feature", "properties": { "month": "Febuary", "day": "2/3", "hours": "06~08", "addr": "桃園市楊梅區中山里環東路283號", "dist": "楊梅區", "grade": "A2" }, "geometry": { "type": "Point", "coordinates": [ 121.1575, 24.90717 ] } },
	{ "type": "Feature", "properties": { "month": "Febuary", "day": "2/3", "hours": "06~08", "addr": "桃園市蘆竹區宏竹里大竹北路631號", "dist": "蘆竹區", "grade": "A2" }, "geometry": { "type": "Point", "coordinates": [ 121.2435, 25.03814 ] } },
	{ "type": "Feature", "properties": { "month": "Febuary", "day": "2/3", "hours": "06~08", "addr": "桃園市龜山區忠義路一段1026之1號", "dist": "龜山區", "grade": "A2" }, "geometry": { "type": "Point", "coordinates": [ 121.3546, 25.02819 ] } },
	{ "type": "Feature", "properties": { "month": "Febuary", "day": "2/3", "hours": "08~10", "addr": "桃園市龜山區民生北路一段164號", "dist": "龜山區", "grade": "A2" }, "geometry": { "type": "Point", "coordinates": [ 121.3026, 25.03505 ] } },
	{ "type": "Feature", "properties": { "month": "Febuary", "day": "2/3", "hours": "08~10", "addr": "桃園市平鎮區振興路2號", "dist": "平鎮區", "grade": "A2" }, "geometry": { "type": "Point", "coordinates": [ 121.2183, 24.94503 ] } },
	{ "type": "Feature", "properties": { "month": "Febuary", "day": "2/3", "hours": "08~10", "addr": "桃園市中壢區永福里東園路17號", "dist": "中壢區", "grade": "A2" }, "geometry": { "type": "Point", "coordinates": [ 121.2397, 24.97071 ] } },
	{ "type": "Feature", "properties": { "month": "Febuary", "day": "2/3", "hours": "08~10", "addr": "桃園市大溪區埔頂路一段357巷336號", "dist": "大溪區", "grade": "A2" }, "geometry": { "type": "Point", "coordinates": [ 121.2748, 24.90273 ] } },
	{ "type": "Feature", "properties": { "month": "Febuary", "day": "2/3", "hours": "08~10", "addr": "桃園市中壢區長江路90巷", "dist": "中壢區", "grade": "A2" }, "geometry": { "type": "Point", "coordinates": [ 121.2281, 24.95634 ] } },
	{ "type": "Feature", "properties": { "month": "Febuary", "day": "2/3", "hours": "08~10", "addr": "桃園市新屋區新生里中山路574號", "dist": "新屋區", "grade": "A2" }, "geometry": { "type": "Point", "coordinates": [ 121.0986, 24.9738 ] } },
	{ "type": "Feature", "properties": { "month": "Febuary", "day": "2/3", "hours": "08~10", "addr": "桃園市蘆竹區油管路一段麗水巷", "dist": "蘆竹區", "grade": "A2" }, "geometry": { "type": "Point", "coordinates": [ 121.297, 25.04935 ] } },
	{ "type": "Feature", "properties": { "month": "Febuary", "day": "2/3", "hours": "08~10", "addr": "桃園市楊梅區梅溪里新農街二段183號", "dist": "楊梅區", "grade": "A2" }, "geometry": { "type": "Point", "coordinates": [ 121.1712, 24.91252 ] } },
	{ "type": "Feature", "properties": { "month": "Febuary", "day": "2/3", "hours": "08~10", "addr": "桃園市大園區大園里中正東路40號", "dist": "大園區", "grade": "A2" }, "geometry": { "type": "Point", "coordinates": [ 121.1987, 25.06357 ] } },
	{ "type": "Feature", "properties": { "month": "Febuary", "day": "2/3", "hours": "08~10", "addr": "桃園市中壢區環西路二段284號", "dist": "中壢區", "grade": "A2" }, "geometry": { "type": "Point", "coordinates": [ 121.2136, 24.96512 ] } },
	{ "type": "Feature", "properties": { "month": "Febuary", "day": "2/3", "hours": "08~10", "addr": "桃園市八德區廣德里新興路65之2號", "dist": "八德區", "grade": "A2" }, "geometry": { "type": "Point", "coordinates": [ 121.2894, 24.95208 ] } },
	{ "type": "Feature", "properties": { "month": "Febuary", "day": "2/3", "hours": "08~10", "addr": "桃園市楊梅區仁美里福德街日新街", "dist": "楊梅區", "grade": "A2" }, "geometry": { "type": "Point", "coordinates": [ 121.1856, 24.9195 ] } },
	{ "type": "Feature", "properties": { "month": "Febuary", "day": "2/3", "hours": "08~10", "addr": "桃園市龜山區中興路173號", "dist": "龜山區", "grade": "A2" }, "geometry": { "type": "Point", "coordinates": [ 121.3326, 24.9898 ] } },
	{ "type": "Feature", "properties": { "month": "Febuary", "day": "2/3", "hours": "08~10", "addr": "桃園市中壢區昆明街合浦街", "dist": "中壢區", "grade": "A2" }, "geometry": { "type": "Point", "coordinates": [ 121.2324, 24.94888 ] } },
	{ "type": "Feature", "properties": { "month": "Febuary", "day": "2/3", "hours": "08~10", "addr": "桃園市大溪區信義路460巷", "dist": "大溪區", "grade": "A2" }, "geometry": { "type": "Point", "coordinates": [ 121.3095, 24.89422 ] } },
	{ "type": "Feature", "properties": { "month": "Febuary", "day": "2/3", "hours": "08~10", "addr": "桃園市中壢區新中北路249巷新中北路", "dist": "中壢區", "grade": "A2" }, "geometry": { "type": "Point", "coordinates": [ 121.2416, 24.95926 ] } },
	{ "type": "Feature", "properties": { "month": "Febuary", "day": "2/3", "hours": "08~10", "addr": "桃園市大園區埔心里大園交流道", "dist": "大園區", "grade": "A2" }, "geometry": { "type": "Point", "coordinates": [ 121.2158, 25.05722 ] } },
	{ "type": "Feature", "properties": { "month": "Febuary", "day": "2/3", "hours": "08~10", "addr": "桃園市中壢區中園路桃圳路", "dist": "中壢區", "grade": "A2" }, "geometry": { "type": "Point", "coordinates": [ 121.2398, 24.9894 ] } },
	{ "type": "Feature", "properties": { "month": "Febuary", "day": "2/3", "hours": "08~10", "addr": "桃園市桃園區中和里三民路二段中正路", "dist": "桃園區", "grade": "A2" }, "geometry": { "type": "Point", "coordinates": [ 121.3085, 24.9988 ] } },
	{ "type": "Feature", "properties": { "month": "Febuary", "day": "2/3", "hours": "08~10", "addr": "桃園市八德區大忠里介壽路一段", "dist": "八德區", "grade": "A2" }, "geometry": { "type": "Point", "coordinates": [ 121.3012, 24.96799 ] } },
	{ "type": "Feature", "properties": { "month": "Febuary", "day": "2/3", "hours": "08~10", "addr": "桃園市桃園區福林里建新街樹仁三街", "dist": "桃園區", "grade": "A2" }, "geometry": { "type": "Point", "coordinates": [ 121.3092, 24.9755 ] } },
	{ "type": "Feature", "properties": { "month": "Febuary", "day": "2/3", "hours": "10~12", "addr": "桃園市平鎮區南勢里南東路393巷", "dist": "平鎮區", "grade": "A2" }, "geometry": { "type": "Point", "coordinates": [ 121.2209, 24.91896 ] } },
	{ "type": "Feature", "properties": { "month": "Febuary", "day": "2/3", "hours": "10~12", "addr": "桃園市中壢區中央西路二段267號", "dist": "中壢區", "grade": "A2" }, "geometry": { "type": "Point", "coordinates": [ 121.212, 24.96154 ] } },
	{ "type": "Feature", "properties": { "month": "Febuary", "day": "2/3", "hours": "10~12", "addr": "桃園市龜山區建國東路38號", "dist": "龜山區", "grade": "A2" }, "geometry": { "type": "Point", "coordinates": [ 121.3243, 24.98678 ] } },
	{ "type": "Feature", "properties": { "month": "Febuary", "day": "2/3", "hours": "10~12", "addr": "桃園市桃園區朝陽里三民路二段121號", "dist": "桃園區", "grade": "A2" }, "geometry": { "type": "Point", "coordinates": [ 121.3129, 25.00033 ] } },
	{ "type": "Feature", "properties": { "month": "Febuary", "day": "2/3", "hours": "10~12", "addr": "桃園市中壢區普仁里山東路一段268號", "dist": "中壢區", "grade": "A2" }, "geometry": { "type": "Point", "coordinates": [ 121.2054, 24.97215 ] } },
	{ "type": "Feature", "properties": { "month": "Febuary", "day": "2/3", "hours": "10~12", "addr": "桃園市觀音區觀音里中正路146號", "dist": "觀音區", "grade": "A2" }, "geometry": { "type": "Point", "coordinates": [ 121.0827, 25.03363 ] } },
	{ "type": "Feature", "properties": { "month": "Febuary", "day": "2/3", "hours": "10~12", "addr": "桃園市楊梅區中興路133號", "dist": "楊梅區", "grade": "A2" }, "geometry": { "type": "Point", "coordinates": [ 121.1855, 24.91648 ] } },
	{ "type": "Feature", "properties": { "month": "Febuary", "day": "2/3", "hours": "10~12", "addr": "桃園市大溪區台七乙線106K", "dist": "大溪區", "grade": "A2" }, "geometry": { "type": "Point", "coordinates": [ 121.3437, 24.85101 ] } },
	{ "type": "Feature", "properties": { "month": "Febuary", "day": "2/3", "hours": "12~14", "addr": "桃園市八德區廣福路1357巷206弄66號", "dist": "八德區", "grade": "A2" }, "geometry": { "type": "Point", "coordinates": [ 121.2707, 24.95161 ] } },
	{ "type": "Feature", "properties": { "month": "Febuary", "day": "2/3", "hours": "12~14", "addr": "桃園市龜山區文化二路科技三路", "dist": "龜山區", "grade": "A2" }, "geometry": { "type": "Point", "coordinates": [ 121.3734, 25.05044 ] } },
	{ "type": "Feature", "properties": { "month": "Febuary", "day": "2/3", "hours": "12~14", "addr": "桃園市中壢區中央里中山路41號", "dist": "中壢區", "grade": "A2" }, "geometry": { "type": "Point", "coordinates": [ 121.2273, 24.95526 ] } },
	{ "type": "Feature", "properties": { "month": "Febuary", "day": "2/3", "hours": "12~14", "addr": "桃園市桃園區中埔里大興西路二段蓮埔街", "dist": "桃園區", "grade": "A2" }, "geometry": { "type": "Point", "coordinates": [ 121.2941, 25.00847 ] } },
	{ "type": "Feature", "properties": { "month": "Febuary", "day": "2/3", "hours": "12~14", "addr": "桃園市平鎮區新勢里延平路一段與中豐路", "dist": "平鎮區", "grade": "A2" }, "geometry": { "type": "Point", "coordinates": [ 121.2161, 24.94905 ] } },
	{ "type": "Feature", "properties": { "month": "Febuary", "day": "2/3", "hours": "12~14", "addr": "桃園市蘆竹區南崁路一段225號", "dist": "蘆竹區", "grade": "A2" }, "geometry": { "type": "Point", "coordinates": [ 121.2851, 25.05304 ] } },
	{ "type": "Feature", "properties": { "month": "Febuary", "day": "2/3", "hours": "12~14", "addr": "桃園市中壢區西園路15號", "dist": "中壢區", "grade": "A2" }, "geometry": { "type": "Point", "coordinates": [ 121.2372, 24.98626 ] } },
	{ "type": "Feature", "properties": { "month": "Febuary", "day": "2/3", "hours": "12~14", "addr": "桃園市平鎮區北貴里中豐路與關爺西路", "dist": "平鎮區", "grade": "A2" }, "geometry": { "type": "Point", "coordinates": [ 121.2233, 24.92878 ] } },
	{ "type": "Feature", "properties": { "month": "Febuary", "day": "2/3", "hours": "12~14", "addr": "桃園市龜山區公園路文興路", "dist": "龜山區", "grade": "A2" }, "geometry": { "type": "Point", "coordinates": [ 121.3674, 25.05504 ] } },
	{ "type": "Feature", "properties": { "month": "Febuary", "day": "2/3", "hours": "12~14", "addr": "桃園市楊梅區永美路361號", "dist": "楊梅區", "grade": "A2" }, "geometry": { "type": "Point", "coordinates": [ 121.1814, 24.91682 ] } },
	{ "type": "Feature", "properties": { "month": "Febuary", "day": "2/3", "hours": "12~14", "addr": "桃園市大園區田心里永興路142號大興高中", "dist": "大園區", "grade": "A2" }, "geometry": { "type": "Point", "coordinates": [ 121.1926, 25.06199 ] } },
	{ "type": "Feature", "properties": { "month": "Febuary", "day": "2/3", "hours": "12~14", "addr": "桃園市八德區豐德二路豐田一路", "dist": "八德區", "grade": "A2" }, "geometry": { "type": "Point", "coordinates": [ 121.2857, 24.92653 ] } },
	{ "type": "Feature", "properties": { "month": "Febuary", "day": "2/3", "hours": "14~16", "addr": "桃園市龜山區文化二路34巷14弄文二三街", "dist": "龜山區", "grade": "A2" }, "geometry": { "type": "Point", "coordinates": [ 121.3639, 25.05853 ] } },
	{ "type": "Feature", "properties": { "month": "Febuary", "day": "2/3", "hours": "14~16", "addr": "桃園市桃園區桃鶯路樹仁二街", "dist": "桃園區", "grade": "A2" }, "geometry": { "type": "Point", "coordinates": [ 121.3219, 24.97841 ] } },
	{ "type": "Feature", "properties": { "month": "Febuary", "day": "2/3", "hours": "14~16", "addr": "桃園市平鎮區廣泰路210巷", "dist": "平鎮區", "grade": "A2" }, "geometry": { "type": "Point", "coordinates": [ 121.2029, 24.9435 ] } },
	{ "type": "Feature", "properties": { "month": "Febuary", "day": "2/3", "hours": "14~16", "addr": "桃園市中壢區永福里中園路", "dist": "中壢區", "grade": "A2" }, "geometry": { "type": "Point", "coordinates": [ 121.2363, 24.98036 ] } },
	{ "type": "Feature", "properties": { "month": "Febuary", "day": "2/3", "hours": "14~16", "addr": "桃園市龜山區萬壽路二段11號", "dist": "龜山區", "grade": "A2" }, "geometry": { "type": "Point", "coordinates": [ 121.3635, 25.00169 ] } },
	{ "type": "Feature", "properties": { "month": "Febuary", "day": "2/3", "hours": "14~16", "addr": "桃園市大園區埔心里中正東路一段埔心街", "dist": "大園區", "grade": "A2" }, "geometry": { "type": "Point", "coordinates": [ 121.224, 25.05223 ] } },
	{ "type": "Feature", "properties": { "month": "Febuary", "day": "2/3", "hours": "14~16", "addr": "桃園市桃園區玉山里復興路育樂街", "dist": "桃園區", "grade": "A2" }, "geometry": { "type": "Point", "coordinates": [ 121.3033, 24.99048 ] } },
	{ "type": "Feature", "properties": { "month": "Febuary", "day": "2/3", "hours": "14~16", "addr": "桃園市桃園區信光里民生路836巷民生路", "dist": "桃園區", "grade": "A2" }, "geometry": { "type": "Point", "coordinates": [ 121.3081, 25.00942 ] } },
	{ "type": "Feature", "properties": { "month": "Febuary", "day": "2/3", "hours": "14~16", "addr": "桃園市龜山區山鶯路與國光巷", "dist": "龜山區", "grade": "A2" }, "geometry": { "type": "Point", "coordinates": [ 121.3273, 24.98586 ] } },
	{ "type": "Feature", "properties": { "month": "Febuary", "day": "2/3", "hours": "14~16", "addr": "桃園市桃園區介壽路福林街", "dist": "桃園區", "grade": "A2" }, "geometry": { "type": "Point", "coordinates": [ 121.3024, 24.97482 ] } },
	{ "type": "Feature", "properties": { "month": "Febuary", "day": "2/3", "hours": "16~18", "addr": "桃園市桃園區富國路511號", "dist": "桃園區", "grade": "A2" }, "geometry": { "type": "Point", "coordinates": [ 121.284, 25.01661 ] } },
	{ "type": "Feature", "properties": { "month": "Febuary", "day": "2/3", "hours": "16~18", "addr": "桃園市八德區和平路708號", "dist": "八德區", "grade": "A2" }, "geometry": { "type": "Point", "coordinates": [ 121.317, 24.95662 ] } },
	{ "type": "Feature", "properties": { "month": "Febuary", "day": "2/3", "hours": "16~18", "addr": "桃園市龜山區忠義路二段復興一路", "dist": "龜山區", "grade": "A2" }, "geometry": { "type": "Point", "coordinates": [ 121.3588, 25.05349 ] } },
	{ "type": "Feature", "properties": { "month": "Febuary", "day": "2/3", "hours": "16~18", "addr": "桃園市楊梅區青山里幼獅路一段458號", "dist": "楊梅區", "grade": "A2" }, "geometry": { "type": "Point", "coordinates": [ 121.1771, 24.92363 ] } },
	{ "type": "Feature", "properties": { "month": "Febuary", "day": "2/3", "hours": "16~18", "addr": "桃園市桃園區桃鶯路大仁路", "dist": "桃園區", "grade": "A2" }, "geometry": { "type": "Point", "coordinates": [ 121.3243, 24.97393 ] } },
	{ "type": "Feature", "properties": { "month": "Febuary", "day": "2/3", "hours": "16~18", "addr": "桃園市中壢區自信里永福路949號", "dist": "中壢區", "grade": "A2" }, "geometry": { "type": "Point", "coordinates": [ 121.2536, 24.9626 ] } },
	{ "type": "Feature", "properties": { "month": "Febuary", "day": "2/3", "hours": "16~18", "addr": "桃園市桃園區同安街南平路", "dist": "桃園區", "grade": "A2" }, "geometry": { "type": "Point", "coordinates": [ 121.3012, 25.0193 ] } },
	{ "type": "Feature", "properties": { "month": "Febuary", "day": "2/3", "hours": "16~18", "addr": "桃園市楊梅區中山北路與環東路", "dist": "楊梅區", "grade": "A2" }, "geometry": { "type": "Point", "coordinates": [ 121.173, 24.9101 ] } },
	{ "type": "Feature", "properties": { "month": "Febuary", "day": "2/3", "hours": "16~18", "addr": "桃園市八德區建國路福僑街", "dist": "八德區", "grade": "A2" }, "geometry": { "type": "Point", "coordinates": [ 121.2955, 24.95644 ] } },
	{ "type": "Feature", "properties": { "month": "Febuary", "day": "2/3", "hours": "16~18", "addr": "桃園市龜山區文二三街53號", "dist": "龜山區", "grade": "A2" }, "geometry": { "type": "Point", "coordinates": [ 121.3638, 25.05858 ] } },
	{ "type": "Feature", "properties": { "month": "Febuary", "day": "2/3", "hours": "18~20", "addr": "桃園市蘆竹區南崁路忠孝東路", "dist": "蘆竹區", "grade": "A2" }, "geometry": { "type": "Point", "coordinates": [ 121.2957, 25.04566 ] } },
	{ "type": "Feature", "properties": { "month": "Febuary", "day": "2/3", "hours": "18~20", "addr": "桃園市桃園區龍山里中山路1562巷", "dist": "桃園區", "grade": "A2" }, "geometry": { "type": "Point", "coordinates": [ 121.2632, 24.9774 ] } },
	{ "type": "Feature", "properties": { "month": "Febuary", "day": "2/3", "hours": "18~20", "addr": "桃園市龜山區山鶯路與國光巷", "dist": "龜山區", "grade": "A2" }, "geometry": { "type": "Point", "coordinates": [ 121.3273, 24.98586 ] } },
	{ "type": "Feature", "properties": { "month": "Febuary", "day": "2/3", "hours": "18~20", "addr": "桃園市蘆竹區海山東街482號", "dist": "蘆竹區", "grade": "A2" }, "geometry": { "type": "Point", "coordinates": [ 121.263, 25.10756 ] } },
	{ "type": "Feature", "properties": { "month": "Febuary", "day": "2/3", "hours": "18~20", "addr": "桃園市大園區田心里國際路一段771對面", "dist": "大園區", "grade": "A2" }, "geometry": { "type": "Point", "coordinates": [ 121.1885, 25.0675 ] } },
	{ "type": "Feature", "properties": { "month": "Febuary", "day": "2/3", "hours": "18~20", "addr": "桃園市中壢區中山路元化路", "dist": "中壢區", "grade": "A2" }, "geometry": { "type": "Point", "coordinates": [ 121.2266, 24.95514 ] } },
	{ "type": "Feature", "properties": { "month": "Febuary", "day": "2/3", "hours": "18~20", "addr": "桃園市觀音區樹林里成功路一段514號", "dist": "觀音區", "grade": "A2" }, "geometry": { "type": "Point", "coordinates": [ 121.1266, 25.05542 ] } },
	{ "type": "Feature", "properties": { "month": "Febuary", "day": "2/3", "hours": "18~20", "addr": "桃園市大溪區大鶯路1616號", "dist": "大溪區", "grade": "A2" }, "geometry": { "type": "Point", "coordinates": [ 121.3197, 24.93187 ] } },
	{ "type": "Feature", "properties": { "month": "Febuary", "day": "2/3", "hours": "18~20", "addr": "桃園市桃園區大豐里建國路建新街", "dist": "桃園區", "grade": "A2" }, "geometry": { "type": "Point", "coordinates": [ 121.3135, 24.98553 ] } },
	{ "type": "Feature", "properties": { "month": "Febuary", "day": "2/3", "hours": "18~20", "addr": "桃園市八德區瑞祥里興豐路855號", "dist": "八德區", "grade": "A2" }, "geometry": { "type": "Point", "coordinates": [ 121.3004, 24.93326 ] } },
	{ "type": "Feature", "properties": { "month": "Febuary", "day": "2/3", "hours": "18~20", "addr": "桃園市平鎮區中豐路南勢一段南東路", "dist": "平鎮區", "grade": "A2" }, "geometry": { "type": "Point", "coordinates": [ 121.2118, 24.92235 ] } },
	{ "type": "Feature", "properties": { "month": "Febuary", "day": "2/3", "hours": "18~20", "addr": "桃園市龜山區文化一路103號對面", "dist": "龜山區", "grade": "A2" }, "geometry": { "type": "Point", "coordinates": [ 121.3854, 25.0488 ] } },
	{ "type": "Feature", "properties": { "month": "Febuary", "day": "2/3", "hours": "18~20", "addr": "桃園市桃園區復興路民生路", "dist": "桃園區", "grade": "A2" }, "geometry": { "type": "Point", "coordinates": [ 121.315, 24.99108 ] } },
	{ "type": "Feature", "properties": { "month": "Febuary", "day": "2/3", "hours": "18~20", "addr": "桃園市桃園區中山路上海路", "dist": "桃園區", "grade": "A2" }, "geometry": { "type": "Point", "coordinates": [ 121.2841, 24.98777 ] } },
	{ "type": "Feature", "properties": { "month": "Febuary", "day": "2/3", "hours": "20~22", "addr": "桃園市楊梅區富岡里中正路87號", "dist": "楊梅區", "grade": "A2" }, "geometry": { "type": "Point", "coordinates": [ 121.0816, 24.93639 ] } },
	{ "type": "Feature", "properties": { "month": "Febuary", "day": "2/3", "hours": "20~22", "addr": "桃園市桃園區西埔里莊敬路二段388號", "dist": "桃園區", "grade": "A2" }, "geometry": { "type": "Point", "coordinates": [ 121.2861, 25.01951 ] } },
	{ "type": "Feature", "properties": { "month": "Febuary", "day": "2/3", "hours": "20~22", "addr": "桃園市中壢區明德里長沙路成都路", "dist": "中壢區", "grade": "A2" }, "geometry": { "type": "Point", "coordinates": [ 121.232, 24.94988 ] } },
	{ "type": "Feature", "properties": { "month": "Febuary", "day": "2/3", "hours": "20~22", "addr": "桃園市大溪區埔頂街與埔頂二街", "dist": "大溪區", "grade": "A2" }, "geometry": { "type": "Point", "coordinates": [ 121.2769, 24.90349 ] } },
	{ "type": "Feature", "properties": { "month": "Febuary", "day": "2/3", "hours": "20~22", "addr": "桃園市蘆竹區內厝里長興路一段82號", "dist": "蘆竹區", "grade": "A2" }, "geometry": { "type": "Point", "coordinates": [ 121.2933, 25.06088 ] } },
	{ "type": "Feature", "properties": { "month": "Febuary", "day": "2/3", "hours": "20~22", "addr": "桃園市龜山區萬壽路二段1341號", "dist": "龜山區", "grade": "A2" }, "geometry": { "type": "Point", "coordinates": [ 121.3264, 24.99271 ] } },
	{ "type": "Feature", "properties": { "month": "Febuary", "day": "2/3", "hours": "20~22", "addr": "桃園市平鎮區湧豐里南豐路86號", "dist": "平鎮區", "grade": "A2" }, "geometry": { "type": "Point", "coordinates": [ 121.2085, 24.90053 ] } },
	{ "type": "Feature", "properties": { "month": "Febuary", "day": "2/3", "hours": "22~24", "addr": "桃園市蘆竹區文中路一段36號", "dist": "蘆竹區", "grade": "A2" }, "geometry": { "type": "Point", "coordinates": [ 121.2731, 24.99255 ] } },
	{ "type": "Feature", "properties": { "month": "Febuary", "day": "2/3", "hours": "22~24", "addr": "桃園市平鎮區新榮里環南路二段123號", "dist": "平鎮區", "grade": "A2" }, "geometry": { "type": "Point", "coordinates": [ 121.211, 24.94333 ] } },
	{ "type": "Feature", "properties": { "month": "Febuary", "day": "2/3", "hours": "22~24", "addr": "桃園市中壢區中山東路三段仁慈路", "dist": "中壢區", "grade": "A2" }, "geometry": { "type": "Point", "coordinates": [ 121.2486, 24.94419 ] } },
	{ "type": "Feature", "properties": { "month": "Febuary", "day": "2/3", "hours": "22~24", "addr": "桃園市八德區瑞祥里介壽路二段1233巷", "dist": "八德區", "grade": "A2" }, "geometry": { "type": "Point", "coordinates": [ 121.2998, 24.93057 ] } },
	{ "type": "Feature", "properties": { "month": "Febuary", "day": "2/3", "hours": "22~24", "addr": "桃園市中壢區新中北路功學路", "dist": "中壢區", "grade": "A2" }, "geometry": { "type": "Point", "coordinates": [ 121.2556, 24.95696 ] } },
	{ "type": "Feature", "properties": { "month": "Febuary", "day": "2/3", "hours": "22~24", "addr": "桃園市桃園區汴洲里春日路幸福路", "dist": "桃園區", "grade": "A2" }, "geometry": { "type": "Point", "coordinates": [ 121.3045, 25.02943 ] } },
	{ "type": "Feature", "properties": { "month": "Febuary", "day": "2/3", "hours": "22~24", "addr": "桃園市龍潭區中正路三坑段與美國路", "dist": "龍潭區", "grade": "A2" }, "geometry": { "type": "Point", "coordinates": [ 121.2461, 24.83744 ] } },
	{ "type": "Feature", "properties": { "month": "Febuary", "day": "2/4", "hours": "00~02", "addr": "桃園市中壢區普慶里中山東路二段525號", "dist": "中壢區", "grade": "A2" }, "geometry": { "type": "Point", "coordinates": [ 121.2462, 24.94735 ] } },
	{ "type": "Feature", "properties": { "month": "Febuary", "day": "2/4", "hours": "00~02", "addr": "桃園市楊梅區瑞坪里梅獅路二段與瑞溪路", "dist": "楊梅區", "grade": "A2" }, "geometry": { "type": "Point", "coordinates": [ 121.1823, 24.90064 ] } },
	{ "type": "Feature", "properties": { "month": "Febuary", "day": "2/4", "hours": "00~02", "addr": "桃園市蘆竹區南山路一段60號", "dist": "蘆竹區", "grade": "A2" }, "geometry": { "type": "Point", "coordinates": [ 121.2923, 25.05208 ] } },
	{ "type": "Feature", "properties": { "month": "Febuary", "day": "2/4", "hours": "02~04", "addr": "桃園市平鎮區新英里新富街122號", "dist": "平鎮區", "grade": "A2" }, "geometry": { "type": "Point", "coordinates": [ 121.213, 24.93874 ] } },
	{ "type": "Feature", "properties": { "month": "Febuary", "day": "2/4", "hours": "02~04", "addr": "桃園市平鎮區龍南路654巷60弄綠大地社區出入", "dist": "平鎮區", "grade": "A2" }, "geometry": { "type": "Point", "coordinates": [ 121.2512, 24.92197 ] } },
	{ "type": "Feature", "properties": { "month": "Febuary", "day": "2/4", "hours": "06~08", "addr": "桃園市中壢區內壢里中華路一段112號", "dist": "中壢區", "grade": "A2" }, "geometry": { "type": "Point", "coordinates": [ 121.2615, 24.97409 ] } },
	{ "type": "Feature", "properties": { "month": "Febuary", "day": "2/4", "hours": "06~08", "addr": "桃園市中壢區民族路三段220號", "dist": "中壢區", "grade": "A2" }, "geometry": { "type": "Point", "coordinates": [ 121.1928, 24.95837 ] } },
	{ "type": "Feature", "properties": { "month": "Febuary", "day": "2/4", "hours": "06~08", "addr": "桃園市楊梅區楊明里新農街378巷新農街", "dist": "楊梅區", "grade": "A2" }, "geometry": { "type": "Point", "coordinates": [ 121.1571, 24.91187 ] } },
	{ "type": "Feature", "properties": { "month": "Febuary", "day": "2/4", "hours": "06~08", "addr": "桃園市楊梅區金龍一路與五守街", "dist": "楊梅區", "grade": "A2" }, "geometry": { "type": "Point", "coordinates": [ 121.1367, 24.92421 ] } },
	{ "type": "Feature", "properties": { "month": "Febuary", "day": "2/4", "hours": "06~08", "addr": "桃園市龍潭區中豐路上林段121號", "dist": "龍潭區", "grade": "A2" }, "geometry": { "type": "Point", "coordinates": [ 121.2083, 24.86284 ] } },
	{ "type": "Feature", "properties": { "month": "Febuary", "day": "2/4", "hours": "06~08", "addr": "桃園市新屋區東明里中山西路一段173巷56弄6號", "dist": "新屋區", "grade": "A2" }, "geometry": { "type": "Point", "coordinates": [ 121.0966, 24.97397 ] } },
	{ "type": "Feature", "properties": { "month": "Febuary", "day": "2/4", "hours": "06~08", "addr": "桃園市楊梅區高上里幼獅路二段3號", "dist": "楊梅區", "grade": "A2" }, "geometry": { "type": "Point", "coordinates": [ 121.1717, 24.93184 ] } },
	{ "type": "Feature", "properties": { "month": "Febuary", "day": "2/4", "hours": "06~08", "addr": "桃園市中壢區中央里中山路2巷104弄", "dist": "中壢區", "grade": "A2" }, "geometry": { "type": "Point", "coordinates": [ 121.2297, 24.95825 ] } },
	{ "type": "Feature", "properties": { "month": "Febuary", "day": "2/4", "hours": "06~08", "addr": "桃園市蘆竹區南崁路二段360號", "dist": "蘆竹區", "grade": "A2" }, "geometry": { "type": "Point", "coordinates": [ 121.27, 25.06142 ] } },
	{ "type": "Feature", "properties": { "month": "Febuary", "day": "2/4", "hours": "06~08", "addr": "桃園市大園區橫峰里中山南路378號", "dist": "大園區", "grade": "A2" }, "geometry": { "type": "Point", "coordinates": [ 121.204, 25.0576 ] } },
	{ "type": "Feature", "properties": { "month": "Febuary", "day": "2/4", "hours": "06~08", "addr": "桃園市龜山區大同路356巷64弄58號", "dist": "龜山區", "grade": "A2" }, "geometry": { "type": "Point", "coordinates": [ 121.3464, 24.98441 ] } },
	{ "type": "Feature", "properties": { "month": "Febuary", "day": "2/4", "hours": "06~08", "addr": "桃園市龜山區萬壽路一段1129巷", "dist": "龜山區", "grade": "A2" }, "geometry": { "type": "Point", "coordinates": [ 121.3806, 25.01084 ] } },
	{ "type": "Feature", "properties": { "month": "Febuary", "day": "2/4", "hours": "06~08", "addr": "桃園市八德區大明里興隆街與興隆街17巷", "dist": "八德區", "grade": "A2" }, "geometry": { "type": "Point", "coordinates": [ 121.3273, 24.9687 ] } },
	{ "type": "Feature", "properties": { "month": "Febuary", "day": "2/4", "hours": "06~08", "addr": "桃園市龍潭區高原里渴望路81巷88弄", "dist": "龍潭區", "grade": "A2" }, "geometry": { "type": "Point", "coordinates": [ 121.1888, 24.8372 ] } },
	{ "type": "Feature", "properties": { "month": "Febuary", "day": "2/4", "hours": "06~08", "addr": "桃園市桃園區大興西路三段往國際路2段方向", "dist": "桃園區", "grade": "A2" }, "geometry": { "type": "Point", "coordinates": [ 121.2852, 25.00041 ] } },
	{ "type": "Feature", "properties": { "month": "Febuary", "day": "2/4", "hours": "06~08", "addr": "桃園市龍潭區中正路221號", "dist": "龍潭區", "grade": "A2" }, "geometry": { "type": "Point", "coordinates": [ 121.2174, 24.86395 ] } },
	{ "type": "Feature", "properties": { "month": "Febuary", "day": "2/4", "hours": "06~08", "addr": "桃園市中壢區正義里中北路二段373巷", "dist": "中壢區", "grade": "A2" }, "geometry": { "type": "Point", "coordinates": [ 121.231, 24.95419 ] } },
	{ "type": "Feature", "properties": { "month": "Febuary", "day": "2/4", "hours": "08~10", "addr": "桃園市中壢區高鐵南路與中豐北路", "dist": "中壢區", "grade": "A2" }, "geometry": { "type": "Point", "coordinates": [ 121.2054, 24.97215 ] } },
	{ "type": "Feature", "properties": { "month": "Febuary", "day": "2/4", "hours": "08~10", "addr": "桃園市平鎮區中豐路山頂段157號", "dist": "平鎮區", "grade": "A2" }, "geometry": { "type": "Point", "coordinates": [ 121.2113, 24.90049 ] } },
	{ "type": "Feature", "properties": { "month": "Febuary", "day": "2/4", "hours": "08~10", "addr": "桃園市平鎮區廣仁里延平路與大昌路", "dist": "平鎮區", "grade": "A2" }, "geometry": { "type": "Point", "coordinates": [ 121.2068, 24.93858 ] } },
	{ "type": "Feature", "properties": { "month": "Febuary", "day": "2/4", "hours": "08~10", "addr": "桃園市龜山區新興街202號", "dist": "龜山區", "grade": "A2" }, "geometry": { "type": "Point", "coordinates": [ 121.3565, 25.04714 ] } },
	{ "type": "Feature", "properties": { "month": "Febuary", "day": "2/4", "hours": "08~10", "addr": "桃園市楊梅區瑞塘里中山北路二段355號", "dist": "楊梅區", "grade": "A2" }, "geometry": { "type": "Point", "coordinates": [ 121.1759, 24.91238 ] } },
	{ "type": "Feature", "properties": { "month": "Febuary", "day": "2/4", "hours": "08~10", "addr": "桃園市中壢區五權里民權路三段75巷443號", "dist": "中壢區", "grade": "A2" }, "geometry": { "type": "Point", "coordinates": [ 121.2082, 24.97441 ] } },
	{ "type": "Feature", "properties": { "month": "Febuary", "day": "2/4", "hours": "08~10", "addr": "桃園市龜山區振興路與東方球場路", "dist": "龜山區", "grade": "A2" }, "geometry": { "type": "Point", "coordinates": [ 121.3643, 25.02226 ] } },
	{ "type": "Feature", "properties": { "month": "Febuary", "day": "2/4", "hours": "10~12", "addr": "桃園市八德區和平路844號", "dist": "八德區", "grade": "A2" }, "geometry": { "type": "Point", "coordinates": [ 121.3192, 24.95902 ] } },
	{ "type": "Feature", "properties": { "month": "Febuary", "day": "2/4", "hours": "10~12", "addr": "桃園市中壢區莊敬路811巷", "dist": "中壢區", "grade": "A2" }, "geometry": { "type": "Point", "coordinates": [ 121.2549, 24.96432 ] } },
	{ "type": "Feature", "properties": { "month": "Febuary", "day": "2/4", "hours": "10~12", "addr": "桃園市新屋區清華里中華路一段375巷", "dist": "新屋區", "grade": "A2" }, "geometry": { "type": "Point", "coordinates": [ 121.1127, 24.96316 ] } },
	{ "type": "Feature", "properties": { "month": "Febuary", "day": "2/4", "hours": "10~12", "addr": "桃園市中壢區永福里西園路49巷9號", "dist": "中壢區", "grade": "A2" }, "geometry": { "type": "Point", "coordinates": [ 121.2348, 24.97415 ] } },
	{ "type": "Feature", "properties": { "month": "Febuary", "day": "2/4", "hours": "10~12", "addr": "桃園市龜山區自強東路大同路", "dist": "龜山區", "grade": "A2" }, "geometry": { "type": "Point", "coordinates": [ 121.3412, 24.99404 ] } },
	{ "type": "Feature", "properties": { "month": "Febuary", "day": "2/4", "hours": "10~12", "addr": "桃園市桃園區莊敬路一段210巷", "dist": "桃園區", "grade": "A2" }, "geometry": { "type": "Point", "coordinates": [ 121.3004, 25.02545 ] } },
	{ "type": "Feature", "properties": { "month": "Febuary", "day": "2/4", "hours": "10~12", "addr": "桃園市中壢區五權里中大路170巷", "dist": "中壢區", "grade": "A2" }, "geometry": { "type": "Point", "coordinates": [ 121.1988, 24.96955 ] } },
	{ "type": "Feature", "properties": { "month": "Febuary", "day": "2/4", "hours": "10~12", "addr": "桃園市中壢區幸福新村99號", "dist": "中壢區", "grade": "A2" }, "geometry": { "type": "Point", "coordinates": [ 121.2642, 24.95378 ] } },
	{ "type": "Feature", "properties": { "month": "Febuary", "day": "2/4", "hours": "12~14", "addr": "桃園市桃園區西埔里富國路", "dist": "桃園區", "grade": "A2" }, "geometry": { "type": "Point", "coordinates": [ 121.2826, 25.01995 ] } },
	{ "type": "Feature", "properties": { "month": "Febuary", "day": "2/4", "hours": "12~14", "addr": "桃園市觀音區新坡里新生路244號", "dist": "觀音區", "grade": "A2" }, "geometry": { "type": "Point", "coordinates": [ 121.1379, 25.01788 ] } },
	{ "type": "Feature", "properties": { "month": "Febuary", "day": "2/4", "hours": "12~14", "addr": "桃園市桃園區中德里國際路一段宏昌十二街", "dist": "桃園區", "grade": "A2" }, "geometry": { "type": "Point", "coordinates": [ 121.2896, 24.98455 ] } },
	{ "type": "Feature", "properties": { "month": "Febuary", "day": "2/4", "hours": "12~14", "addr": "桃園市八德區大安里和平路與和平路540巷", "dist": "八德區", "grade": "A2" }, "geometry": { "type": "Point", "coordinates": [ 121.3144, 24.95693 ] } },
	{ "type": "Feature", "properties": { "month": "Febuary", "day": "2/4", "hours": "12~14", "addr": "桃園市楊梅區文化街189巷1號", "dist": "楊梅區", "grade": "A2" }, "geometry": { "type": "Point", "coordinates": [ 121.1836, 24.91219 ] } },
	{ "type": "Feature", "properties": { "month": "Febuary", "day": "2/4", "hours": "12~14", "addr": "桃園市蘆竹區中正路洛陽街", "dist": "蘆竹區", "grade": "A2" }, "geometry": { "type": "Point", "coordinates": [ 121.2929, 25.04595 ] } },
	{ "type": "Feature", "properties": { "month": "Febuary", "day": "2/4", "hours": "12~14", "addr": "桃園市八德區建國路119號", "dist": "八德區", "grade": "A2" }, "geometry": { "type": "Point", "coordinates": [ 121.2863, 24.93336 ] } },
	{ "type": "Feature", "properties": { "month": "Febuary", "day": "2/4", "hours": "12~14", "addr": "桃園市龜山區自強南路中和南路", "dist": "龜山區", "grade": "A2" }, "geometry": { "type": "Point", "coordinates": [ 121.3326, 24.99302 ] } },
	{ "type": "Feature", "properties": { "month": "Febuary", "day": "2/4", "hours": "12~14", "addr": "桃園市桃園區復興路140號", "dist": "桃園區", "grade": "A2" }, "geometry": { "type": "Point", "coordinates": [ 121.3136, 24.99085 ] } },
	{ "type": "Feature", "properties": { "month": "Febuary", "day": "2/4", "hours": "12~14", "addr": "桃園市八德區永豐路聯明街", "dist": "八德區", "grade": "A2" }, "geometry": { "type": "Point", "coordinates": [ 121.2766, 24.96833 ] } },
	{ "type": "Feature", "properties": { "month": "Febuary", "day": "2/4", "hours": "14~16", "addr": "桃園市八德區大強里東勇街與東勇街490巷", "dist": "八德區", "grade": "A2" }, "geometry": { "type": "Point", "coordinates": [ 121.3092, 24.9663 ] } },
	{ "type": "Feature", "properties": { "month": "Febuary", "day": "2/4", "hours": "14~16", "addr": "桃園市桃園區中成里國際路二段慈文路", "dist": "桃園區", "grade": "A2" }, "geometry": { "type": "Point", "coordinates": [ 121.2876, 25.00047 ] } },
	{ "type": "Feature", "properties": { "month": "Febuary", "day": "2/4", "hours": "14~16", "addr": "桃園市觀音區新坡里中山路二段67號", "dist": "觀音區", "grade": "A2" }, "geometry": { "type": "Point", "coordinates": [ 121.1235, 25.01923 ] } },
	{ "type": "Feature", "properties": { "month": "Febuary", "day": "2/4", "hours": "14~16", "addr": "桃園市平鎮區中豐路南勢一段南東路平鎮", "dist": "平鎮區", "grade": "A2" }, "geometry": { "type": "Point", "coordinates": [ 121.2118, 24.92235 ] } },
	{ "type": "Feature", "properties": { "month": "Febuary", "day": "2/4", "hours": "16~18", "addr": "桃園市蘆竹區中正路榮興路", "dist": "蘆竹區", "grade": "A2" }, "geometry": { "type": "Point", "coordinates": [ 121.2956, 25.04115 ] } },
	{ "type": "Feature", "properties": { "month": "Febuary", "day": "2/4", "hours": "16~18", "addr": "桃園市桃園區中正里正光路79號", "dist": "桃園區", "grade": "A2" }, "geometry": { "type": "Point", "coordinates": [ 121.2949, 24.99327 ] } },
	{ "type": "Feature", "properties": { "month": "Febuary", "day": "2/4", "hours": "16~18", "addr": "桃園市中壢區中正路568號", "dist": "中壢區", "grade": "A2" }, "geometry": { "type": "Point", "coordinates": [ 121.212, 24.95887 ] } },
	{ "type": "Feature", "properties": { "month": "Febuary", "day": "2/4", "hours": "16~18", "addr": "桃園市中壢區元化地下道", "dist": "中壢區", "grade": "A2" }, "geometry": { "type": "Point", "coordinates": [ 121.2264, 24.95495 ] } },
	{ "type": "Feature", "properties": { "month": "Febuary", "day": "2/4", "hours": "16~18", "addr": "桃園市蘆竹區錦溪路119號", "dist": "蘆竹區", "grade": "A2" }, "geometry": { "type": "Point", "coordinates": [ 121.289, 25.05486 ] } },
	{ "type": "Feature", "properties": { "month": "Febuary", "day": "2/4", "hours": "16~18", "addr": "桃園市龍潭區三林里民族路316號", "dist": "龍潭區", "grade": "A2" }, "geometry": { "type": "Point", "coordinates": [ 121.2345, 24.83794 ] } },
	{ "type": "Feature", "properties": { "month": "Febuary", "day": "2/4", "hours": "16~18", "addr": "桃園市八德區茄苳路725巷71號", "dist": "八德區", "grade": "A2" }, "geometry": { "type": "Point", "coordinates": [ 121.2835, 24.96998 ] } },
	{ "type": "Feature", "properties": { "month": "Febuary", "day": "2/4", "hours": "16~18", "addr": "桃園市平鎮區龍南路74號", "dist": "平鎮區", "grade": "A2" }, "geometry": { "type": "Point", "coordinates": [ 121.2457, 24.92426 ] } },
	{ "type": "Feature", "properties": { "month": "Febuary", "day": "2/4", "hours": "16~18", "addr": "桃園市平鎮區金陵路188號", "dist": "平鎮區", "grade": "A2" }, "geometry": { "type": "Point", "coordinates": [ 121.2222, 24.94622 ] } },
	{ "type": "Feature", "properties": { "month": "Febuary", "day": "2/4", "hours": "16~18", "addr": "桃園市桃園區龍岡里江南十街", "dist": "桃園區", "grade": "A2" }, "geometry": { "type": "Point", "coordinates": [ 121.2827, 24.99115 ] } },
	{ "type": "Feature", "properties": { "month": "Febuary", "day": "2/4", "hours": "16~18", "addr": "桃園市楊梅區永美路中興路", "dist": "楊梅區", "grade": "A2" }, "geometry": { "type": "Point", "coordinates": [ 121.1838, 24.9192 ] } },
	{ "type": "Feature", "properties": { "month": "Febuary", "day": "2/4", "hours": "16~18", "addr": "桃園市楊梅區瑞塘里梅獅路二段169號", "dist": "楊梅區", "grade": "A2" }, "geometry": { "type": "Point", "coordinates": [ 121.1769, 24.90679 ] } },
	{ "type": "Feature", "properties": { "month": "Febuary", "day": "2/4", "hours": "18~20", "addr": "桃園市龜山區文化一路近青山路", "dist": "龜山區", "grade": "A2" }, "geometry": { "type": "Point", "coordinates": [ 121.3803, 25.05101 ] } },
	{ "type": "Feature", "properties": { "month": "Febuary", "day": "2/4", "hours": "18~20", "addr": "桃園市中壢區文化二路101號", "dist": "中壢區", "grade": "A2" }, "geometry": { "type": "Point", "coordinates": [ 121.2524, 24.97294 ] } },
	{ "type": "Feature", "properties": { "month": "Febuary", "day": "2/4", "hours": "18~20", "addr": "桃園市平鎮區中豐路延平路", "dist": "平鎮區", "grade": "A2" }, "geometry": { "type": "Point", "coordinates": [ 121.2183, 24.95079 ] } },
	{ "type": "Feature", "properties": { "month": "Febuary", "day": "2/4", "hours": "18~20", "addr": "桃園市桃園區中正大興西路", "dist": "桃園區", "grade": "A2" }, "geometry": { "type": "Point", "coordinates": [ 121.3054, 25.01453 ] } },
	{ "type": "Feature", "properties": { "month": "Febuary", "day": "2/4", "hours": "18~20", "addr": "桃園市八德區和平路991巷366號", "dist": "八德區", "grade": "A2" }, "geometry": { "type": "Point", "coordinates": [ 121.3148, 24.96618 ] } },
	{ "type": "Feature", "properties": { "month": "Febuary", "day": "2/4", "hours": "18~20", "addr": "桃園市龜山區山鶯路2巷17號", "dist": "龜山區", "grade": "A2" }, "geometry": { "type": "Point", "coordinates": [ 121.3225, 24.99089 ] } },
	{ "type": "Feature", "properties": { "month": "Febuary", "day": "2/4", "hours": "18~20", "addr": "桃園市觀音區草漯里長興路與福德街", "dist": "觀音區", "grade": "A2" }, "geometry": { "type": "Point", "coordinates": [ 121.301, 24.99363 ] } },
	{ "type": "Feature", "properties": { "month": "Febuary", "day": "2/4", "hours": "18~20", "addr": "桃園市桃園區寶慶路同德三街", "dist": "桃園區", "grade": "A2" }, "geometry": { "type": "Point", "coordinates": [ 121.2943, 25.01096 ] } },
	{ "type": "Feature", "properties": { "month": "Febuary", "day": "2/4", "hours": "20~22", "addr": "桃園市中壢區吉林北路文中路", "dist": "中壢區", "grade": "A2" }, "geometry": { "type": "Point", "coordinates": [ 121.2497, 24.98902 ] } },
	{ "type": "Feature", "properties": { "month": "Febuary", "day": "2/4", "hours": "20~22", "addr": "桃園市平鎮區中豐路關爺西路", "dist": "平鎮區", "grade": "A2" }, "geometry": { "type": "Point", "coordinates": [ 121.2148, 24.93297 ] } },
	{ "type": "Feature", "properties": { "month": "Febuary", "day": "2/4", "hours": "20~22", "addr": "桃園市桃園區寶慶里中埔二街同德三街", "dist": "桃園區", "grade": "A2" }, "geometry": { "type": "Point", "coordinates": [ 121.296, 25.01173 ] } },
	{ "type": "Feature", "properties": { "month": "Febuary", "day": "2/4", "hours": "20~22", "addr": "桃園市龍潭區桃園市龍潭區中豐路與中豐路中山段路", "dist": "龍潭區", "grade": "A2" }, "geometry": { "type": "Point", "coordinates": [ 121.2054, 24.84449 ] } },
	{ "type": "Feature", "properties": { "month": "Febuary", "day": "2/4", "hours": "20~22", "addr": "桃園市中壢區新生路96號", "dist": "中壢區", "grade": "A2" }, "geometry": { "type": "Point", "coordinates": [ 121.223, 24.9593 ] } },
	{ "type": "Feature", "properties": { "month": "Febuary", "day": "2/4", "hours": "20~22", "addr": "桃園市大溪區員林路二段421號", "dist": "大溪區", "grade": "A2" }, "geometry": { "type": "Point", "coordinates": [ 121.2673, 24.88334 ] } },
	{ "type": "Feature", "properties": { "month": "Febuary", "day": "2/4", "hours": "20~22", "addr": "桃園市龜山區萬壽路一段與東萬壽路", "dist": "龜山區", "grade": "A2" }, "geometry": { "type": "Point", "coordinates": [ 121.3868, 25.012 ] } },
	{ "type": "Feature", "properties": { "month": "Febuary", "day": "2/4", "hours": "20~22", "addr": "桃園市中壢區強國路136號", "dist": "中壢區", "grade": "A2" }, "geometry": { "type": "Point", "coordinates": [ 121.2563, 24.96771 ] } },
	{ "type": "Feature", "properties": { "month": "Febuary", "day": "2/4", "hours": "20~22", "addr": "桃園市中壢區中北路2巷", "dist": "中壢區", "grade": "A2" }, "geometry": { "type": "Point", "coordinates": [ 121.2363, 24.95583 ] } },
	{ "type": "Feature", "properties": { "month": "Febuary", "day": "2/4", "hours": "20~22", "addr": "桃園市八德區大發里和平路1190巷電桿大仁幹32號", "dist": "八德區", "grade": "A2" }, "geometry": { "type": "Point", "coordinates": [ 121.3261, 24.96406 ] } },
	{ "type": "Feature", "properties": { "month": "Febuary", "day": "2/4", "hours": "22~24", "addr": "桃園市楊梅區新農街與新農街429巷", "dist": "楊梅區", "grade": "A2" }, "geometry": { "type": "Point", "coordinates": [ 121.17, 24.91259 ] } },
	{ "type": "Feature", "properties": { "month": "Febuary", "day": "2/4", "hours": "22~24", "addr": "桃園市桃園區寶山里寶山街210巷10號", "dist": "桃園區", "grade": "A2" }, "geometry": { "type": "Point", "coordinates": [ 121.316, 25.01262 ] } },
	{ "type": "Feature", "properties": { "month": "Febuary", "day": "2/4", "hours": "22~24", "addr": "桃園市中壢區環中東路與林森路", "dist": "中壢區", "grade": "A2" }, "geometry": { "type": "Point", "coordinates": [ 121.2504, 24.95868 ] } },
	{ "type": "Feature", "properties": { "month": "Febuary", "day": "2/4", "hours": "22~24", "addr": "桃園市龜山區萬壽路一段與中正路", "dist": "龜山區", "grade": "A2" }, "geometry": { "type": "Point", "coordinates": [ 121.3868, 25.012 ] } },
	{ "type": "Feature", "properties": { "month": "Febuary", "day": "2/4", "hours": "22~24", "addr": "桃園市平鎮區廣仁里廣南路138號", "dist": "平鎮區", "grade": "A2" }, "geometry": { "type": "Point", "coordinates": [ 121.208, 24.93828 ] } },
	{ "type": "Feature", "properties": { "month": "Febuary", "day": "2/5", "hours": "00~02", "addr": "桃園市八德區廣興里廣福路523號", "dist": "八德區", "grade": "A2" }, "geometry": { "type": "Point", "coordinates": [ 121.2857, 24.96013 ] } },
	{ "type": "Feature", "properties": { "month": "Febuary", "day": "2/5", "hours": "00~02", "addr": "桃園市龍潭區中豐路上林段08703號燈桿附近往關西", "dist": "龍潭區", "grade": "A2" }, "geometry": { "type": "Point", "coordinates": [ 121.2044, 24.85264 ] } },
	{ "type": "Feature", "properties": { "month": "Febuary", "day": "2/5", "hours": "02~04", "addr": "桃園市大溪區員林路一段與仁和路一段路", "dist": "大溪區", "grade": "A2" }, "geometry": { "type": "Point", "coordinates": [ 121.2778, 24.89594 ] } },
	{ "type": "Feature", "properties": { "month": "Febuary", "day": "2/5", "hours": "02~04", "addr": "桃園市中壢區水尾里永清街一段67號", "dist": "中壢區", "grade": "A2" }, "geometry": { "type": "Point", "coordinates": [ 121.2275, 24.99019 ] } },
	{ "type": "Feature", "properties": { "month": "Febuary", "day": "2/5", "hours": "02~04", "addr": "桃園市大園區圳頭里後館42號", "dist": "大園區", "grade": "A2" }, "geometry": { "type": "Point", "coordinates": [ 121.1956, 25.07754 ] } },
	{ "type": "Feature", "properties": { "month": "Febuary", "day": "2/5", "hours": "02~04", "addr": "桃園市桃園區中正路三民路二段", "dist": "桃園區", "grade": "A2" }, "geometry": { "type": "Point", "coordinates": [ 121.3085, 24.9988 ] } },
	{ "type": "Feature", "properties": { "month": "Febuary", "day": "2/5", "hours": "04~06", "addr": "桃園市大園區溪海里南和路環區東路", "dist": "大園區", "grade": "A2" }, "geometry": { "type": "Point", "coordinates": [ 121.172, 25.04574 ] } },
	{ "type": "Feature", "properties": { "month": "Febuary", "day": "2/5", "hours": "04~06", "addr": "桃園市中壢區中豐路中央西路", "dist": "中壢區", "grade": "A2" }, "geometry": { "type": "Point", "coordinates": [ 121.2194, 24.95816 ] } },
	{ "type": "Feature", "properties": { "month": "Febuary", "day": "2/5", "hours": "04~06", "addr": "桃園市楊梅區楊明里中山北路一段470號", "dist": "楊梅區", "grade": "A1" }, "geometry": { "type": "Point", "coordinates": [ 121.1609, 24.90924 ] } },
	{ "type": "Feature", "properties": { "month": "Febuary", "day": "2/5", "hours": "04~06", "addr": "桃園市中壢區中華路二段及普忠路", "dist": "中壢區", "grade": "A2" }, "geometry": { "type": "Point", "coordinates": [ 121.2373, 24.9646 ] } },
	{ "type": "Feature", "properties": { "month": "Febuary", "day": "2/5", "hours": "04~06", "addr": "桃園市桃園區中和里三民路中正路", "dist": "桃園區", "grade": "A2" }, "geometry": { "type": "Point", "coordinates": [ 121.3085, 24.99878 ] } },
	{ "type": "Feature", "properties": { "month": "Febuary", "day": "2/5", "hours": "04~06", "addr": "桃園市蘆竹區南竹路二段奉化路", "dist": "蘆竹區", "grade": "A2" }, "geometry": { "type": "Point", "coordinates": [ 121.2849, 25.04159 ] } },
	{ "type": "Feature", "properties": { "month": "Febuary", "day": "2/5", "hours": "04~06", "addr": "桃園市中壢區興平里環北路222號", "dist": "中壢區", "grade": "A2" }, "geometry": { "type": "Point", "coordinates": [ 121.2227, 24.96623 ] } },
	{ "type": "Feature", "properties": { "month": "Febuary", "day": "2/5", "hours": "06~08", "addr": "桃園市中壢區中北路二段健行路", "dist": "中壢區", "grade": "A2" }, "geometry": { "type": "Point", "coordinates": [ 121.2266, 24.95183 ] } },
	{ "type": "Feature", "properties": { "month": "Febuary", "day": "2/5", "hours": "06~08", "addr": "桃園市平鎮區環南路三段221巷", "dist": "平鎮區", "grade": "A2" }, "geometry": { "type": "Point", "coordinates": [ 121.2221, 24.94061 ] } },
	{ "type": "Feature", "properties": { "month": "Febuary", "day": "2/5", "hours": "06~08", "addr": "桃園市中壢區五權里民族路二段232巷", "dist": "中壢區", "grade": "A2" }, "geometry": { "type": "Point", "coordinates": [ 121.2039, 24.95731 ] } },
	{ "type": "Feature", "properties": { "month": "Febuary", "day": "2/5", "hours": "06~08", "addr": "桃園市桃園區慈文里慈光街慈光街101巷", "dist": "桃園區", "grade": "A2" }, "geometry": { "type": "Point", "coordinates": [ 121.2991, 25.00604 ] } },
	{ "type": "Feature", "properties": { "month": "Febuary", "day": "2/5", "hours": "06~08", "addr": "桃園市大溪區信義路與中華路", "dist": "大溪區", "grade": "A2" }, "geometry": { "type": "Point", "coordinates": [ 121.3095, 24.89422 ] } },
	{ "type": "Feature", "properties": { "month": "Febuary", "day": "2/5", "hours": "06~08", "addr": "桃園市桃園區春日里向善街大業路二段", "dist": "桃園區", "grade": "A2" }, "geometry": { "type": "Point", "coordinates": [ 121.3108, 25.01861 ] } },
	{ "type": "Feature", "properties": { "month": "Febuary", "day": "2/5", "hours": "06~08", "addr": "桃園市中壢區忠福里培英路276號", "dist": "中壢區", "grade": "A2" }, "geometry": { "type": "Point", "coordinates": [ 121.2275, 24.97676 ] } },
	{ "type": "Feature", "properties": { "month": "Febuary", "day": "2/5", "hours": "06~08", "addr": "桃園市平鎮區工業二路5之1號", "dist": "平鎮區", "grade": "A2" }, "geometry": { "type": "Point", "coordinates": [ 121.2023, 24.90163 ] } },
	{ "type": "Feature", "properties": { "month": "Febuary", "day": "2/5", "hours": "06~08", "addr": "桃園市中壢區中園路二段46巷內定十六街", "dist": "中壢區", "grade": "A2" }, "geometry": { "type": "Point", "coordinates": [ 121.2355, 24.98994 ] } },
	{ "type": "Feature", "properties": { "month": "Febuary", "day": "2/5", "hours": "06~08", "addr": "桃園市平鎮區鎮興里21鄰中庸路一段299巷仁壽宮", "dist": "平鎮區", "grade": "A2" }, "geometry": { "type": "Point", "coordinates": [ 121.1952, 24.90464 ] } },
	{ "type": "Feature", "properties": { "month": "Febuary", "day": "2/5", "hours": "06~08", "addr": "桃園市龍潭區高原里中原路二段696號", "dist": "龍潭區", "grade": "A2" }, "geometry": { "type": "Point", "coordinates": [ 121.1928, 24.83004 ] } },
	{ "type": "Feature", "properties": { "month": "Febuary", "day": "2/5", "hours": "08~10", "addr": "桃園市桃園區慈文路410號", "dist": "桃園區", "grade": "A2" }, "geometry": { "type": "Point", "coordinates": [ 121.2982, 25.00378 ] } },
	{ "type": "Feature", "properties": { "month": "Febuary", "day": "2/5", "hours": "08~10", "addr": "桃園市桃園區南埔里吉安街吉安街113巷", "dist": "桃園區", "grade": "A2" }, "geometry": { "type": "Point", "coordinates": [ 121.2915, 25.00454 ] } },
	{ "type": "Feature", "properties": { "month": "Febuary", "day": "2/5", "hours": "08~10", "addr": "桃園市八德區廣興里廣興路980巷", "dist": "八德區", "grade": "A2" }, "geometry": { "type": "Point", "coordinates": [ 121.2851, 24.95318 ] } },
	{ "type": "Feature", "properties": { "month": "Febuary", "day": "2/5", "hours": "08~10", "addr": "桃園市八德區大湳里和平路991巷和平路", "dist": "八德區", "grade": "A2" }, "geometry": { "type": "Point", "coordinates": [ 121.3206, 24.9617 ] } },
	{ "type": "Feature", "properties": { "month": "Febuary", "day": "2/5", "hours": "08~10", "addr": "桃園市龜山區文化一路青山路", "dist": "龜山區", "grade": "A2" }, "geometry": { "type": "Point", "coordinates": [ 121.3855, 25.04023 ] } },
	{ "type": "Feature", "properties": { "month": "Febuary", "day": "2/5", "hours": "08~10", "addr": "桃園市龜山區復興三路11號", "dist": "龜山區", "grade": "A2" }, "geometry": { "type": "Point", "coordinates": [ 121.3754, 25.05429 ] } },
	{ "type": "Feature", "properties": { "month": "Febuary", "day": "2/5", "hours": "08~10", "addr": "桃園市桃園區三民路二段302號", "dist": "桃園區", "grade": "A2" }, "geometry": { "type": "Point", "coordinates": [ 121.3092, 24.99948 ] } },
	{ "type": "Feature", "properties": { "month": "Febuary", "day": "2/5", "hours": "08~10", "addr": "桃園市大溪區仁和路二段159巷", "dist": "大溪區", "grade": "A2" }, "geometry": { "type": "Point", "coordinates": [ 121.2616, 24.9061 ] } },
	{ "type": "Feature", "properties": { "month": "Febuary", "day": "2/5", "hours": "08~10", "addr": "桃園市中壢區龍安里龍東路506號", "dist": "中壢區", "grade": "A2" }, "geometry": { "type": "Point", "coordinates": [ 121.2569, 24.93494 ] } },
	{ "type": "Feature", "properties": { "month": "Febuary", "day": "2/5", "hours": "08~10", "addr": "桃園市觀音區草新里九如街與新生路吉利巷", "dist": "觀音區", "grade": "A2" }, "geometry": { "type": "Point", "coordinates": [ 121.301, 24.99363 ] } },
	{ "type": "Feature", "properties": { "month": "Febuary", "day": "2/5", "hours": "08~10", "addr": "桃園市中壢區九和二街15號", "dist": "中壢區", "grade": "A2" }, "geometry": { "type": "Point", "coordinates": [ 121.2235, 24.9632 ] } },
	{ "type": "Feature", "properties": { "month": "Febuary", "day": "2/5", "hours": "10~12", "addr": "桃園市桃園區中山路育樂街", "dist": "桃園區", "grade": "A2" }, "geometry": { "type": "Point", "coordinates": [ 121.3042, 24.99213 ] } },
	{ "type": "Feature", "properties": { "month": "Febuary", "day": "2/5", "hours": "10~12", "addr": "桃園市中壢區健行里中北路健行路", "dist": "中壢區", "grade": "A2" }, "geometry": { "type": "Point", "coordinates": [ 121.2266, 24.95183 ] } },
	{ "type": "Feature", "properties": { "month": "Febuary", "day": "2/5", "hours": "10~12", "addr": "桃園市八德區廣隆里廣福路722號", "dist": "八德區", "grade": "A2" }, "geometry": { "type": "Point", "coordinates": [ 121.2813, 24.96073 ] } },
	{ "type": "Feature", "properties": { "month": "Febuary", "day": "2/5", "hours": "10~12", "addr": "桃園市桃園區復興路299號", "dist": "桃園區", "grade": "A2" }, "geometry": { "type": "Point", "coordinates": [ 121.3058, 24.98915 ] } },
	{ "type": "Feature", "properties": { "month": "Febuary", "day": "2/5", "hours": "10~12", "addr": "桃園市龍潭區龍潭里東龍路263號", "dist": "龍潭區", "grade": "A2" }, "geometry": { "type": "Point", "coordinates": [ 121.2137, 24.86576 ] } },