{
    "type": "FeatureCollection",
    "features": [
    { "type": "Feature", "properties": { "date": "3月1日", "time": "00~02", "addr": "桃園市龍潭區中山里中正路與華南路號", "dist": "龍潭區", "grade": "A2" }, "geometry": { "type": "Point", "coordinates": [ 121.2161861, 24.8671945 ] } },
    { "type": "Feature", "properties": { "date": "3月4日", "time": "00~02", "addr": "桃園市龜山區萬壽路一段1164號", "dist": "龜山區", "grade": "A2" }, "geometry": { "type": "Point", "coordinates": [ 121.3806206, 25.0114188 ] } },
    { "type": "Feature", "properties": { "date": "3月5日", "time": "00~02", "addr": "桃園市桃園區國際路一段宏昌八街", "dist": "桃園區", "grade": "A2" }, "geometry": { "type": "Point", "coordinates": [ 121.2895646, 24.9856806 ] } },
    { "type": "Feature", "properties": { "date": "3月5日", "time": "00~02", "addr": "桃園市平鎮區新富里中豐路與新富二街路", "dist": "平鎮區", "grade": "A2" }, "geometry": { "type": "Point", "coordinates": [ 121.2166873, 24.9434117 ] } },
    { "type": "Feature", "properties": { "date": "3月6日", "time": "00~02", "addr": "桃園市桃園區日隆加油站", "dist": "桃園區", "grade": "A2" }, "geometry": { "type": "Point", "coordinates": [ 121.2969674, 24.9934099 ] } },
    { "type": "Feature", "properties": { "date": "3月6日", "time": "00~02", "addr": "桃園市中壢區民族路六段642巷與民族路六段576巷39弄", "dist": "中壢區", "grade": "A2" }, "geometry": { "type": "Point", "coordinates": [ 121.1590074, 24.9623013 ] } },
    { "type": "Feature", "properties": { "date": "3月6日", "time": "00~02", "addr": "桃園市桃園區民生里中山路民生路", "dist": "桃園區", "grade": "A2" }, "geometry": { "type": "Point", "coordinates": [ 121.3126685, 24.9953082 ] } },
    { "type": "Feature", "properties": { "date": "3月6日", "time": "00~02", "addr": "桃園市桃園區中路里文中路國際路", "dist": "桃園區", "grade": "A2" }, "geometry": { "type": "Point", "coordinates": [ 121.2878125, 24.9959017 ] } },
    { "type": "Feature", "properties": { "date": "3月6日", "time": "00~02", "addr": "桃園市龜山區萬壽路二段1235號", "dist": "龜山區", "grade": "A2" }, "geometry": { "type": "Point", "coordinates": [ 121.3302311, 24.9932953 ] } },
    { "type": "Feature", "properties": { "date": "3月9日", "time": "00~02", "addr": "桃園市中壢區普強里環中東路幸福街", "dist": "中壢區", "grade": "A2" }, "geometry": { "type": "Point", "coordinates": [ 121.2364969, 24.9490553 ] } },
    { "type": "Feature", "properties": { "date": "3月9日", "time": "00~02", "addr": "桃園市桃園區桃鶯路昆明路", "dist": "桃園區", "grade": "A2" }, "geometry": { "type": "Point", "coordinates": [ 121.3185835, 24.9839733 ] } },
    { "type": "Feature", "properties": { "date": "3月2日", "time": "00~02", "addr": "桃園市中壢區中山東路一段224號", "dist": "中壢區", "grade": "A2" }, "geometry": { "type": "Point", "coordinates": [ 121.2341983, 24.9569506 ] } },
    { "type": "Feature", "properties": { "date": "3月3日", "time": "00~02", "addr": "桃園市八德區國際路廣福路", "dist": "八德區", "grade": "A2" }, "geometry": { "type": "Point", "coordinates": [ 121.2931918, 24.9595496 ] } },
    { "type": "Feature", "properties": { "date": "3月3日", "time": "00~02", "addr": "桃園市桃園區中正路751號", "dist": "桃園區", "grade": "A2" }, "geometry": { "type": "Point", "coordinates": [ 121.3025755, 25.0076652 ] } },
    { "type": "Feature", "properties": { "date": "3月4日", "time": "00~02", "addr": "桃園市平鎮區中豐路南豐路", "dist": "平鎮區", "grade": "A2" }, "geometry": { "type": "Point", "coordinates": [ 121.2109173, 24.900063 ] } },
    { "type": "Feature", "properties": { "date": "3月4日", "time": "00~02", "addr": "桃園市中壢區環中東路5981號", "dist": "中壢區", "grade": "A2" }, "geometry": { "type": "Point", "coordinates": [ 121.2504364, 24.9586806 ] } },
    { "type": "Feature", "properties": { "date": "3月5日", "time": "00~02", "addr": "桃園市龜山區萬壽路一段8號", "dist": "龜山區", "grade": "A2" }, "geometry": { "type": "Point", "coordinates": [ 121.3979813, 25.0173296 ] } },
    { "type": "Feature", "properties": { "date": "3月7日", "time": "00~02", "addr": "桃園市桃園區國際路一段中路街", "dist": "桃園區", "grade": "A2" }, "geometry": { "type": "Point", "coordinates": [ 121.2929708, 24.9617055 ] } },
    { "type": "Feature", "properties": { "date": "3月8日", "time": "00~02", "addr": "桃園市蘆竹區中正北路陸橋", "dist": "蘆竹區", "grade": "A1" }, "geometry": { "type": "Point", "coordinates": [ 121.2969674, 25.0784359 ] } },
    { "type": "Feature", "properties": { "date": "3月8日", "time": "00~02", "addr": "桃園市八德區大福里桃德路與正福八街", "dist": "八德區", "grade": "A2" }, "geometry": { "type": "Point", "coordinates": [ 121.2986038, 24.9747304 ] } },
    { "type": "Feature", "properties": { "date": "3月1日", "time": "00~02", "addr": "桃園市中壢區龍東里龍東路319號", "dist": "中壢區", "grade": "A2" }, "geometry": { "type": "Point", "coordinates": [ 121.2546289, 24.9320696 ] } },
    { "type": "Feature", "properties": { "date": "3月2日", "time": "00~02", "addr": "桃園市桃園區南埔里蓮埔街溫州街", "dist": "桃園區", "grade": "A2" }, "geometry": { "type": "Point", "coordinates": [ 121.2970988, 25.0063499 ] } },
    { "type": "Feature", "properties": { "date": "3月3日", "time": "00~02", "addr": "桃園市平鎮區台66線路東向234公里處", "dist": "平鎮區", "grade": "A2" }, "geometry": { "type": "Point", "coordinates": [ 121.2231176, 24.9201274 ] } },
    { "type": "Feature", "properties": { "date": "3月4日", "time": "00~02", "addr": "桃園市大園區橫峰里中正三街9號", "dist": "大園區", "grade": "A2" }, "geometry": { "type": "Point", "coordinates": [ 121.2017, 25.0615748 ] } },
    { "type": "Feature", "properties": { "date": "3月4日", "time": "00~02", "addr": "桃園市桃園區慈文里永安路慈光街", "dist": "桃園區", "grade": "A2" }, "geometry": { "type": "Point", "coordinates": [ 121.2965922, 25.0039847 ] } },
    { "type": "Feature", "properties": { "date": "3月8日", "time": "00~02", "addr": "桃園市八德區高城里高城八街46巷高城六街", "dist": "八德區", "grade": "A2" }, "geometry": { "type": "Point", "coordinates": [ 121.2747341, 24.9788233 ] } },
    { "type": "Feature", "properties": { "date": "3月8日", "time": "00~02", "addr": "桃園市中壢區後寮里後興路二段後興幹20號電桿", "dist": "中壢區", "grade": "A2" }, "geometry": { "type": "Point", "coordinates": [ 121.2371134, 24.9428587 ] } },
    { "type": "Feature", "properties": { "date": "3月10日", "time": "00~02", "addr": "桃園市桃園區永安路與大興西路二段", "dist": "桃園區", "grade": "A2" }, "geometry": { "type": "Point", "coordinates": [ 121.2936378, 25.0063539 ] } },
    { "type": "Feature", "properties": { "date": "3月11日", "time": "00~02", "addr": "桃園市中壢區新明路109號對面", "dist": "中壢區", "grade": "A2" }, "geometry": { "type": "Point", "coordinates": [ 121.2150014, 24.9601051 ] } },
    { "type": "Feature", "properties": { "date": "3月11日", "time": "00~02", "addr": "桃園市平鎮區復旦路二段1231號", "dist": "平鎮區", "grade": "A2" }, "geometry": { "type": "Point", "coordinates": [ 121.2020553, 24.9474849 ] } },
    { "type": "Feature", "properties": { "date": "3月12日", "time": "00~02", "addr": "桃園市楊梅區楊明里新農街與金山街", "dist": "楊梅區", "grade": "A2" }, "geometry": { "type": "Point", "coordinates": [ 121.160629, 24.9127336 ] } },
    { "type": "Feature", "properties": { "date": "3月13日", "time": "00~02", "addr": "桃園市中壢區吉林二路83巷36號", "dist": "中壢區", "grade": "A2" }, "geometry": { "type": "Point", "coordinates": [ 121.2458628, 24.9809279 ] } },
    { "type": "Feature", "properties": { "date": "3月13日", "time": "00~02", "addr": "桃園市平鎮區山峰里中豐路山頂段與中豐路山頂段３７５巷", "dist": "平鎮區", "grade": "A2" }, "geometry": { "type": "Point", "coordinates": [ 121.2124879, 24.8913664 ] } },
    { "type": "Feature", "properties": { "date": "3月14日", "time": "00~02", "addr": "桃園市桃園區大興西路一段經國路", "dist": "桃園區", "grade": "A2" }, "geometry": { "type": "Point", "coordinates": [ 121.3063409, 25.0149412 ] } },
    { "type": "Feature", "properties": { "date": "3月15日", "time": "00~02", "addr": "桃園市龜山區明德路172號", "dist": "龜山區", "grade": "A2" }, "geometry": { "type": "Point", "coordinates": [ 121.3410938, 24.9922187 ] } },
    { "type": "Feature", "properties": { "date": "3月16日", "time": "00~02", "addr": "桃園市中壢區青埔里領航北路青埔路", "dist": "中壢區", "grade": "A2" }, "geometry": { "type": "Point", "coordinates": [ 121.2164912, 25.0070698 ] } },
    { "type": "Feature", "properties": { "date": "3月17日", "time": "00~02", "addr": "桃園市桃園區中平里中平路30號", "dist": "桃園區", "grade": "A2" }, "geometry": { "type": "Point", "coordinates": [ 121.2921487, 24.9896731 ] } },
    { "type": "Feature", "properties": { "date": "3月19日", "time": "00~02", "addr": "桃園市八德區大勇里東勇北路與國道2號橋下路", "dist": "八德區", "grade": "A2" }, "geometry": { "type": "Point", "coordinates": [ 121.3068327, 24.9690568 ] } },
    { "type": "Feature", "properties": { "date": "3月19日", "time": "00~02", "addr": "桃園市平鎮區華安里平東路246巷", "dist": "平鎮區", "grade": "A2" }, "geometry": { "type": "Point", "coordinates": [ 121.2483211, 24.9162427 ] } },
    { "type": "Feature", "properties": { "date": "3月20日", "time": "00~02", "addr": "桃園市龜山區萬壽路一段與三興路", "dist": "龜山區", "grade": "A2" }, "geometry": { "type": "Point", "coordinates": [ 121.3868147, 25.0119967 ] } },
    { "type": "Feature", "properties": { "date": "3月20日", "time": "00~02", "addr": "桃園市八德區大華里介壽路二段167號", "dist": "八德區", "grade": "A2" }, "geometry": { "type": "Point", "coordinates": [ 121.2988277, 24.9540025 ] } },
    { "type": "Feature", "properties": { "date": "3月20日", "time": "00~02", "addr": "桃園市八德區大福里桃德路與正福八街", "dist": "八德區", "grade": "A2" }, "geometry": { "type": "Point", "coordinates": [ 121.2986038, 24.9747304 ] } },
    { "type": "Feature", "properties": { "date": "3月23日", "time": "00~02", "addr": "桃園市龜山區文化二路與公園路", "dist": "龜山區", "grade": "A2" }, "geometry": { "type": "Point", "coordinates": [ 121.36911, 25.0548115 ] } },
    { "type": "Feature", "properties": { "date": "3月24日", "time": "00~02", "addr": "桃園市桃園區武陵里民生路安樂街武陵", "dist": "桃園區", "grade": "A2" }, "geometry": { "type": "Point", "coordinates": [ 121.3142879, 24.9918199 ] } },
    { "type": "Feature", "properties": { "date": "3月24日", "time": "00~02", "addr": "桃園市平鎮區平南里上海路與漢口街", "dist": "平鎮區", "grade": "A2" }, "geometry": { "type": "Point", "coordinates": [ 121.2065014, 24.9110093 ] } },
    { "type": "Feature", "properties": { "date": "3月24日", "time": "00~02", "addr": "桃園市龜山區文化三路與文化三路37巷", "dist": "龜山區", "grade": "A2" }, "geometry": { "type": "Point", "coordinates": [ 121.3646752, 25.0566186 ] } },
    { "type": "Feature", "properties": { "date": "3月25日", "time": "00~02", "addr": "桃園市龜山區民生北路一段532號", "dist": "龜山區", "grade": "A2" }, "geometry": { "type": "Point", "coordinates": [ 121.2979027, 25.0436143 ] } },
    { "type": "Feature", "properties": { "date": "3月25日", "time": "00~02", "addr": "桃園市八德區中華路280號", "dist": "八德區", "grade": "A2" }, "geometry": { "type": "Point", "coordinates": [ 121.2763307, 24.9820208 ] } },
    { "type": "Feature", "properties": { "date": "3月25日", "time": "00~02", "addr": "桃園市龍潭區中興路392巷中興", "dist": "龍潭區", "grade": "A2" }, "geometry": { "type": "Point", "coordinates": [ 121.2312119, 24.8732078 ] } },
    { "type": "Feature", "properties": { "date": "3月27日", "time": "00~02", "addr": "桃園市桃園區中泰里中山路上海路", "dist": "桃園區", "grade": "A2" }, "geometry": { "type": "Point", "coordinates": [ 121.2840608, 24.987772 ] } },
    { "type": "Feature", "properties": { "date": "3月30日", "time": "00~02", "addr": "桃園市龜山區南祥路與南美街", "dist": "龜山區", "grade": "A2" }, "geometry": { "type": "Point", "coordinates": [ 121.3007398, 25.0479772 ] } },
    { "type": "Feature", "properties": { "date": "3月31日", "time": "00~02", "addr": "桃園市桃園區文中路大興西路三段", "dist": "桃園區", "grade": "A2" }, "geometry": { "type": "Point", "coordinates": [ 121.2782045, 24.9937446 ] } },
    { "type": "Feature", "properties": { "date": "3月13日", "time": "00~02", "addr": "桃園市平鎮區中豐路莊敬段25號", "dist": "平鎮區", "grade": "A2" }, "geometry": { "type": "Point", "coordinates": [ 121.2118965, 24.9062924 ] } },
    { "type": "Feature", "properties": { "date": "3月14日", "time": "00~02", "addr": "桃園市桃園區萬壽路三段山鶯路", "dist": "桃園區", "grade": "A2" }, "geometry": { "type": "Point", "coordinates": [ 121.3226388, 24.9919888 ] } },
    { "type": "Feature", "properties": { "date": "3月14日", "time": "00~02", "addr": "桃園市桃園區新埔里經國路南平路", "dist": "桃園區", "grade": "A2" }, "geometry": { "type": "Point", "coordinates": [ 121.3039358, 25.0203918 ] } },
    { "type": "Feature", "properties": { "date": "3月18日", "time": "00~02", "addr": "桃園市龜山區東萬壽路189K處", "dist": "龜山區", "grade": "A2" }, "geometry": { "type": "Point", "coordinates": [ 121.376376, 25.0094757 ] } },
    { "type": "Feature", "properties": { "date": "3月20日", "time": "00~02", "addr": "桃園市八德區大和里介壽路二段77號", "dist": "八德區", "grade": "A2" }, "geometry": { "type": "Point", "coordinates": [ 121.2989367, 24.9559485 ] } },
    { "type": "Feature", "properties": { "date": "3月22日", "time": "00~02", "addr": "桃園市桃園區福林里介壽路長沙街", "dist": "桃園區", "grade": "A2" }, "geometry": { "type": "Point", "coordinates": [ 121.3045125, 24.9793909 ] } },
    { "type": "Feature", "properties": { "date": "3月23日", "time": "00~02", "addr": "桃園市大園區橫峰里中山南路二段28號", "dist": "大園區", "grade": "A2" }, "geometry": { "type": "Point", "coordinates": [ 121.2123779, 25.0312457 ] } },
    { "type": "Feature", "properties": { "date": "3月24日", "time": "00~02", "addr": "桃園市桃園區三民路二段永安路", "dist": "桃園區", "grade": "A2" }, "geometry": { "type": "Point", "coordinates": [ 121.2864795, 25.0092015 ] } },
    { "type": "Feature", "properties": { "date": "3月24日", "time": "00~02", "addr": "桃園市桃園區泰山里玉山街76巷玉山街", "dist": "桃園區", "grade": "A2" }, "geometry": { "type": "Point", "coordinates": [ 121.300581, 24.9864282 ] } },
    { "type": "Feature", "properties": { "date": "3月27日", "time": "00~02", "addr": "桃園市龜山區忠義路一段下坡往長壽路方向", "dist": "龜山區", "grade": "A2" }, "geometry": { "type": "Point", "coordinates": [ 121.3500753, 25.0207933 ] } },
    { "type": "Feature", "properties": { "date": "3月28日", "time": "00~02", "addr": "桃園市八德區福興里廣興路媽祖厝35號", "dist": "八德區", "grade": "A2" }, "geometry": { "type": "Point", "coordinates": [ 121.2843624, 24.9318255 ] } },
    { "type": "Feature", "properties": { "date": "3月30日", "time": "00~02", "addr": "桃園市龜山區長壽路542巷", "dist": "龜山區", "grade": "A2" }, "geometry": { "type": "Point", "coordinates": [ 121.3286769, 24.9973836 ] } },
    { "type": "Feature", "properties": { "date": "3月31日", "time": "00~02", "addr": "桃園市中壢區五福里中正路環西路", "dist": "中壢區", "grade": "A2" }, "geometry": { "type": "Point", "coordinates": [ 121.2079837, 24.9615447 ] } },
    { "type": "Feature", "properties": { "date": "3月12日", "time": "00~02", "addr": "桃園市觀音區觀音里中山路40號", "dist": "觀音區", "grade": "A2" }, "geometry": { "type": "Point", "coordinates": [ 121.084481, 25.035109 ] } },
    { "type": "Feature", "properties": { "date": "3月12日", "time": "00~02", "addr": "桃園市桃園區大業路一段431號", "dist": "桃園區", "grade": "A2" }, "geometry": { "type": "Point", "coordinates": [ 121.3111834, 25.0146307 ] } },
    { "type": "Feature", "properties": { "date": "3月12日", "time": "00~02", "addr": "桃園市桃園區南華里三民路中華路", "dist": "桃園區", "grade": "A2" }, "geometry": { "type": "Point", "coordinates": [ 121.3069559, 24.9896429 ] } },
    { "type": "Feature", "properties": { "date": "3月13日", "time": "00~02", "addr": "桃園市桃園區北門里三民路二段民生路", "dist": "桃園區", "grade": "A2" }, "geometry": { "type": "Point", "coordinates": [ 121.3105261, 24.9999978 ] } },
    { "type": "Feature", "properties": { "date": "3月15日", "time": "00~02", "addr": "桃園市平鎮區新富里中豐路與新富街", "dist": "平鎮區", "grade": "A2" }, "geometry": { "type": "Point", "coordinates": [ 121.2166873, 24.9434117 ] } },
    { "type": "Feature", "properties": { "date": "3月18日", "time": "00~02", "addr": "桃園市龜山區文化二路復興一路", "dist": "龜山區", "grade": "A2" }, "geometry": { "type": "Point", "coordinates": [ 121.3660585, 25.0581988 ] } },
    { "type": "Feature", "properties": { "date": "3月20日", "time": "00~02", "addr": "桃園市平鎮區義興里延平路振興西路", "dist": "平鎮區", "grade": "A2" }, "geometry": { "type": "Point", "coordinates": [ 121.2103723, 24.9472689 ] } },
    { "type": "Feature", "properties": { "date": "3月21日", "time": "00~02", "addr": "桃園市中壢區青埔里領航南路3段478號", "dist": "中壢區", "grade": "A2" }, "geometry": { "type": "Point", "coordinates": [ 121.222128, 25.0142874 ] } },
    { "type": "Feature", "properties": { "date": "3月23日", "time": "00~02", "addr": "桃園市楊梅區梅溪里中山北路二段三民北路", "dist": "楊梅區", "grade": "A2" }, "geometry": { "type": "Point", "coordinates": [ 121.1702001, 24.9085029 ] } },
    { "type": "Feature", "properties": { "date": "3月24日", "time": "00~02", "addr": "桃園市中壢區後寮里後寮龍昌路", "dist": "中壢區", "grade": "A2" }, "geometry": { "type": "Point", "coordinates": [ 121.2494288, 24.9347813 ] } },
    { "type": "Feature", "properties": { "date": "3月24日", "time": "00~02", "addr": "桃園市桃園區泰山里復興路418巷復興路中路", "dist": "桃園區", "grade": "A2" }, "geometry": { "type": "Point", "coordinates": [ 121.302692, 24.9907977 ] } },
    { "type": "Feature", "properties": { "date": "3月25日", "time": "00~02", "addr": "桃園市中壢區中興里環中東路267號", "dist": "中壢區", "grade": "A2" }, "geometry": { "type": "Point", "coordinates": [ 121.2563982, 24.9629801 ] } },
    { "type": "Feature", "properties": { "date": "3月27日", "time": "00~02", "addr": "桃園市桃園區南埔里蓮埔街溫州街", "dist": "桃園區", "grade": "A2" }, "geometry": { "type": "Point", "coordinates": [ 121.2970988, 25.0063499 ] } },
    { "type": "Feature", "properties": { "date": "3月28日", "time": "00~02", "addr": "桃園市桃園區春日里春日路1399號", "dist": "桃園區", "grade": "A2" }, "geometry": { "type": "Point", "coordinates": [ 121.3081638, 25.0202621 ] } },
    { "type": "Feature", "properties": { "date": "3月31日", "time": "00~02", "addr": "桃園市楊梅區高榮里高上路一段316號", "dist": "楊梅區", "grade": "A2" }, "geometry": { "type": "Point", "coordinates": [ 121.1570591, 24.9416254 ] } },
    { "type": "Feature", "properties": { "date": "3月1日", "time": "02~04", "addr": "桃園市桃園區成功路三段50號", "dist": "桃園區", "grade": "A2" }, "geometry": { "type": "Point", "coordinates": [ 121.3252365, 24.9999109 ] } },
    { "type": "Feature", "properties": { "date": "3月2日", "time": "02~04", "addr": "桃園市蘆竹區新興里大竹路269巷", "dist": "蘆竹區", "grade": "A2" }, "geometry": { "type": "Point", "coordinates": [ 121.2675765, 25.0170228 ] } },
    { "type": "Feature", "properties": { "date": "3月6日", "time": "02~04", "addr": "桃園市中壢區中豐北路環北路", "dist": "中壢區", "grade": "A2" }, "geometry": { "type": "Point", "coordinates": [ 121.220563, 24.9663966 ] } },
    { "type": "Feature", "properties": { "date": "3月11日", "time": "02~04", "addr": "桃園市龜山區頂興路84號", "dist": "龜山區", "grade": "A2" }, "geometry": { "type": "Point", "coordinates": [ 121.3293996, 24.989039 ] } },
    { "type": "Feature", "properties": { "date": "3月11日", "time": "02~04", "addr": "桃園市桃園區中山路泰山街", "dist": "桃園區", "grade": "A2" }, "geometry": { "type": "Point", "coordinates": [ 121.2975217, 24.9913385 ] } },
    { "type": "Feature", "properties": { "date": "3月13日", "time": "02~04", "addr": "桃園市桃園區大興路春日路", "dist": "桃園區", "grade": "A2" }, "geometry": { "type": "Point", "coordinates": [ 121.3091713, 25.0154246 ] } },
    { "type": "Feature", "properties": { "date": "3月15日", "time": "02~04", "addr": "桃園市蘆竹區文中路一段龍壽街一段", "dist": "蘆竹區", "grade": "A2" }, "geometry": { "type": "Point", "coordinates": [ 121.2672624, 24.9913714 ] } },
    { "type": "Feature", "properties": { "date": "3月19日", "time": "02~04", "addr": "桃園市桃園區成功里中山東路中央街", "dist": "桃園區", "grade": "A2" }, "geometry": { "type": "Point", "coordinates": [ 121.3171498, 24.996712 ] } },
    { "type": "Feature", "properties": { "date": "3月20日", "time": "02~04", "addr": "桃園市桃園區三民路二段268號", "dist": "桃園區", "grade": "A2" }, "geometry": { "type": "Point", "coordinates": [ 121.309994, 24.999962 ] } },
    { "type": "Feature", "properties": { "date": "3月20日", "time": "02~04", "addr": "桃園市八德區茄明里中華路與明光街", "dist": "八德區", "grade": "A2" }, "geometry": { "type": "Point", "coordinates": [ 121.2771555, 24.9825784 ] } },
    { "type": "Feature", "properties": { "date": "3月20日", "time": "02~04", "addr": "桃園市八德區介壽路一段建國路", "dist": "八德區", "grade": "A2" }, "geometry": { "type": "Point", "coordinates": [ 121.2992244, 24.9576328 ] } },
    { "type": "Feature", "properties": { "date": "3月21日", "time": "02~04", "addr": "桃園市桃園區中山里壽昌街20巷中平路", "dist": "桃園區", "grade": "A2" }, "geometry": { "type": "Point", "coordinates": [ 121.2922068, 24.9895659 ] } },
    { "type": "Feature", "properties": { "date": "3月22日", "time": "02~04", "addr": "桃園市楊梅區青山里幼獅路一段70號對向車道", "dist": "楊梅區", "grade": "A2" }, "geometry": { "type": "Point", "coordinates": [ 121.1812015, 24.9223084 ] } },
    { "type": "Feature", "properties": { "date": "3月27日", "time": "02~04", "addr": "桃園市蘆竹區南崁路南竹路", "dist": "蘆竹區", "grade": "A2" }, "geometry": { "type": "Point", "coordinates": [ 121.2938373, 25.0478542 ] } },
    { "type": "Feature", "properties": { "date": "3月29日", "time": "02~04", "addr": "桃園市中壢區忠義里中華路普忠路", "dist": "中壢區", "grade": "A2" }, "geometry": { "type": "Point", "coordinates": [ 121.2413651, 24.9659841 ] } },
    { "type": "Feature", "properties": { "date": "3月13日", "time": "02~04", "addr": "桃園市桃園區慈文里慈文路慈德街", "dist": "桃園區", "grade": "A2" }, "geometry": { "type": "Point", "coordinates": [ 121.2995261, 25.0080085 ] } },
    { "type": "Feature", "properties": { "date": "3月15日", "time": "02~04", "addr": "桃園市平鎮區復興里復旦路二段文化街", "dist": "平鎮區", "grade": "A2" }, "geometry": { "type": "Point", "coordinates": [ 121.205379, 24.9480508 ] } },
    { "type": "Feature", "properties": { "date": "3月16日", "time": "02~04", "addr": "桃園市龜山區院前一路", "dist": "龜山區", "grade": "A2" }, "geometry": { "type": "Point", "coordinates": [ 121.3682151, 25.0622554 ] } },
    { "type": "Feature", "properties": { "date": "3月17日", "time": "02~04", "addr": "桃園市中壢區復華街與自強六路", "dist": "中壢區", "grade": "A2" }, "geometry": { "type": "Point", "coordinates": [ 121.2480432, 24.9733306 ] } },
    { "type": "Feature", "properties": { "date": "3月17日", "time": "02~04", "addr": "桃園市中壢區環中東路與實踐路", "dist": "中壢區", "grade": "A2" }, "geometry": { "type": "Point", "coordinates": [ 121.2504364, 24.9586806 ] } },
    { "type": "Feature", "properties": { "date": "3月17日", "time": "02~04", "addr": "桃園市蘆竹區經國路890號", "dist": "蘆竹區", "grade": "A2" }, "geometry": { "type": "Point", "coordinates": [ 121.3009137, 25.0338256 ] } },
    { "type": "Feature", "properties": { "date": "3月20日", "time": "02~04", "addr": "桃園市平鎮區台66線路三興路", "dist": "平鎮區", "grade": "A2" }, "geometry": { "type": "Point", "coordinates": [ 121.2053963, 24.9296022 ] } },
    { "type": "Feature", "properties": { "date": "3月21日", "time": "02~04", "addr": "桃園市中壢區延平路與中美路", "dist": "中壢區", "grade": "A2" }, "geometry": { "type": "Point", "coordinates": [ 121.2253792, 24.9600909 ] } },
    { "type": "Feature", "properties": { "date": "3月22日", "time": "02~04", "addr": "桃園市桃園區中正路三民路二段", "dist": "桃園區", "grade": "A2" }, "geometry": { "type": "Point", "coordinates": [ 121.3085179, 24.9987986 ] } },
    { "type": "Feature", "properties": { "date": "3月22日", "time": "02~04", "addr": "桃園市中壢區普忠里新中北路258號", "dist": "中壢區", "grade": "A2" }, "geometry": { "type": "Point", "coordinates": [ 121.2402412, 24.9592516 ] } },
    { "type": "Feature", "properties": { "date": "3月23日", "time": "02~04", "addr": "桃園市楊梅區梅獅路一段永平路", "dist": "楊梅區", "grade": "A2" }, "geometry": { "type": "Point", "coordinates": [ 121.1821494, 24.9211931 ] } },
    { "type": "Feature", "properties": { "date": "3月24日", "time": "02~04", "addr": "桃園市桃園區新埔里大興西路一段經國路", "dist": "桃園區", "grade": "A2" }, "geometry": { "type": "Point", "coordinates": [ 121.3063409, 25.0149412 ] } },
    { "type": "Feature", "properties": { "date": "3月24日", "time": "02~04", "addr": "桃園市中壢區華愛里榮民路482號", "dist": "中壢區", "grade": "A2" }, "geometry": { "type": "Point", "coordinates": [ 121.2599801, 24.9582449 ] } },
    { "type": "Feature", "properties": { "date": "3月25日", "time": "02~04", "addr": "桃園市中壢區環西路二段226巷環西路二段", "dist": "中壢區", "grade": "A2" }, "geometry": { "type": "Point", "coordinates": [ 121.209045, 24.9634007 ] } },
    { "type": "Feature", "properties": { "date": "3月29日", "time": "02~04", "addr": "桃園市中壢區新明里中山路新明路", "dist": "中壢區", "grade": "A2" }, "geometry": { "type": "Point", "coordinates": [ 121.2145454, 24.9571475 ] } },
    { "type": "Feature", "properties": { "date": "3月2日", "time": "04~06", "addr": "桃園市桃園區北門里三民路二段永樂街", "dist": "桃園區", "grade": "A2" }, "geometry": { "type": "Point", "coordinates": [ 121.309568, 24.9993702 ] } },
    { "type": "Feature", "properties": { "date": "3月2日", "time": "04~06", "addr": "桃園市八德區中華路衛福部桃園醫院", "dist": "八德區", "grade": "A2" }, "geometry": { "type": "Point", "coordinates": [ 121.2762179, 24.981787 ] } },
    { "type": "Feature", "properties": { "date": "3月5日", "time": "04~06", "addr": "桃園市桃園區民生路復興路", "dist": "桃園區", "grade": "A2" }, "geometry": { "type": "Point", "coordinates": [ 121.3149726, 24.9910757 ] } },
    { "type": "Feature", "properties": { "date": "3月5日", "time": "04~06", "addr": "桃園市中壢區民族路三段260號", "dist": "中壢區", "grade": "A2" }, "geometry": { "type": "Point", "coordinates": [ 121.1927609, 24.961121 ] } },
    { "type": "Feature", "properties": { "date": "3月6日", "time": "04~06", "addr": "桃園市中壢區領航南路與致遠二路", "dist": "中壢區", "grade": "A2" }, "geometry": { "type": "Point", "coordinates": [ 121.2053963, 24.9721514 ] } },
    { "type": "Feature", "properties": { "date": "3月7日", "time": "04~06", "addr": "桃園市八德區茄明里中華路341號", "dist": "八德區", "grade": "A2" }, "geometry": { "type": "Point", "coordinates": [ 121.2755274, 24.9810906 ] } },
    { "type": "Feature", "properties": { "date": "3月1日", "time": "04~06", "addr": "桃園市平鎮區北興里金陵路二段385之1號", "dist": "平鎮區", "grade": "A2" }, "geometry": { "type": "Point", "coordinates": [ 121.2260498, 24.9345731 ] } },
    { "type": "Feature", "properties": { "date": "3月1日", "time": "04~06", "addr": "桃園市平鎮區高雙路102號", "dist": "平鎮區", "grade": "A2" }, "geometry": { "type": "Point", "coordinates": [ 121.188428, 24.953776 ] } },
    { "type": "Feature", "properties": { "date": "3月2日", "time": "04~06", "addr": "桃園市蘆竹區坑子里八德一路往林口方向", "dist": "蘆竹區", "grade": "A2" }, "geometry": { "type": "Point", "coordinates": [ 121.3445608, 25.0658612 ] } },
    { "type": "Feature", "properties": { "date": "3月2日", "time": "04~06", "addr": "桃園市龜山區文化二路18巷文化二路", "dist": "龜山區", "grade": "A2" }, "geometry": { "type": "Point", "coordinates": [ 121.3643287, 25.0616202 ] } },
    { "type": "Feature", "properties": { "date": "3月2日", "time": "04~06", "addr": "桃園市八德區龍友里新生路100巷", "dist": "八德區", "grade": "A2" }, "geometry": { "type": "Point", "coordinates": [ 121.2599498, 24.928926 ] } },
    { "type": "Feature", "properties": { "date": "3月2日", "time": "04~06", "addr": "桃園市八德區永豐路廣福路", "dist": "八德區", "grade": "A2" }, "geometry": { "type": "Point", "coordinates": [ 121.2791484, 24.960691 ] } },
    { "type": "Feature", "properties": { "date": "3月2日", "time": "04~06", "addr": "桃園市桃園區萬壽路二段與大同路", "dist": "桃園區", "grade": "A2" }, "geometry": { "type": "Point", "coordinates": [ 121.3228422, 24.9920625 ] } },
    { "type": "Feature", "properties": { "date": "3月2日", "time": "04~06", "addr": "桃園市平鎮區三興自強街", "dist": "平鎮區", "grade": "A2" }, "geometry": { "type": "Point", "coordinates": [ 121.214242, 24.9073105 ] } },
    { "type": "Feature", "properties": { "date": "3月3日", "time": "04~06", "addr": "桃園市平鎮區湧安里湧安路196號", "dist": "平鎮區", "grade": "A2" }, "geometry": { "type": "Point", "coordinates": [ 121.2024695, 24.894319 ] } },
    { "type": "Feature", "properties": { "date": "3月3日", "time": "04~06", "addr": "桃園市新屋區新生里長福路311號", "dist": "新屋區", "grade": "A2" }, "geometry": { "type": "Point", "coordinates": [ 121.1008616, 24.9763854 ] } },
    { "type": "Feature", "properties": { "date": "3月3日", "time": "04~06", "addr": "桃園市中壢區中央西路與中豐路", "dist": "中壢區", "grade": "A2" }, "geometry": { "type": "Point", "coordinates": [ 121.2212512, 24.9578858 ] } },
    { "type": "Feature", "properties": { "date": "3月4日", "time": "04~06", "addr": "桃園市蘆竹區", "dist": "蘆竹區", "grade": "A2" }, "geometry": { "type": "Point", "coordinates": [ 121.2969674, 25.0784359 ] } },
    { "type": "Feature", "properties": { "date": "3月6日", "time": "04~06", "addr": "桃園市龜山區萬壽路二段139號", "dist": "龜山區", "grade": "A2" }, "geometry": { "type": "Point", "coordinates": [ 121.3603313, 25.0014869 ] } },
    { "type": "Feature", "properties": { "date": "3月7日", "time": "04~06", "addr": "桃園市平鎮區中豐路南勢二段中庸路", "dist": "平鎮區", "grade": "A2" }, "geometry": { "type": "Point", "coordinates": [ 121.2103955, 24.9136764 ] } },
    { "type": "Feature", "properties": { "date": "3月7日", "time": "04~06", "addr": "桃園市楊梅區楊梅里大成路楊新路", "dist": "楊梅區", "grade": "A2" }, "geometry": { "type": "Point", "coordinates": [ 121.1458495, 24.9132442 ] } },
    { "type": "Feature", "properties": { "date": "3月7日", "time": "04~06", "addr": "桃園市大園區田心里國際路一段187號", "dist": "大園區", "grade": "A2" }, "geometry": { "type": "Point", "coordinates": [ 121.189709, 25.068196 ] } },
    { "type": "Feature", "properties": { "date": "3月7日", "time": "04~06", "addr": "桃園市龜山區自強西路長壽路481巷", "dist": "龜山區", "grade": "A2" }, "geometry": { "type": "Point", "coordinates": [ 121.3341717, 24.9968165 ] } },
    { "type": "Feature", "properties": { "date": "3月7日", "time": "04~06", "addr": "桃園市大溪區介壽路與員林路一段路", "dist": "大溪區", "grade": "A2" }, "geometry": { "type": "Point", "coordinates": [ 121.2868379, 24.9081638 ] } },
    { "type": "Feature", "properties": { "date": "3月9日", "time": "04~06", "addr": "桃園市中壢區中正路三段與高鐵南路", "dist": "中壢區", "grade": "A2" }, "geometry": { "type": "Point", "coordinates": [ 121.1860346, 24.9852893 ] } },
    { "type": "Feature", "properties": { "date": "3月9日", "time": "04~06", "addr": "桃園市中壢區興和里環北路萬和停車場出入", "dist": "中壢區", "grade": "A2" }, "geometry": { "type": "Point", "coordinates": [ 121.2217531, 24.966341 ] } },
    { "type": "Feature", "properties": { "date": "3月9日", "time": "04~06", "addr": "桃園市新屋區新生里新生一街與中正路110巷", "dist": "新屋區", "grade": "A2" }, "geometry": { "type": "Point", "coordinates": [ 121.1047692, 24.9741482 ] } },
    { "type": "Feature", "properties": { "date": "3月9日", "time": "04~06", "addr": "桃園市八德區力霸街新興路", "dist": "八德區", "grade": "A2" }, "geometry": { "type": "Point", "coordinates": [ 121.2907263, 24.9528206 ] } },
    { "type": "Feature", "properties": { "date": "3月11日", "time": "04~06", "addr": "桃園市中壢區龍岡里龍岡路二段367號", "dist": "中壢區", "grade": "A2" }, "geometry": { "type": "Point", "coordinates": [ 121.230662, 24.9409625 ] } },
    { "type": "Feature", "properties": { "date": "3月14日", "time": "04~06", "addr": "桃園市桃園區大有路660號前的斑馬線", "dist": "桃園區", "grade": "A2" }, "geometry": { "type": "Point", "coordinates": [ 121.3165978, 25.0167573 ] } },
    { "type": "Feature", "properties": { "date": "3月15日", "time": "04~06", "addr": "桃園市桃園區永興里中正路三民路二段", "dist": "桃園區", "grade": "A2" }, "geometry": { "type": "Point", "coordinates": [ 121.3085179, 24.9987986 ] } },
    { "type": "Feature", "properties": { "date": "3月15日", "time": "04~06", "addr": "桃園市平鎮區東安里平東路平等路", "dist": "平鎮區", "grade": "A2" }, "geometry": { "type": "Point", "coordinates": [ 121.2530629, 24.9181436 ] } },
    { "type": "Feature", "properties": { "date": "3月15日", "time": "04~06", "addr": "桃園市桃園區中泰里中山路上海路", "dist": "桃園區", "grade": "A2" }, "geometry": { "type": "Point", "coordinates": [ 121.2840608, 24.987772 ] } },
    { "type": "Feature", "properties": { "date": "3月16日", "time": "04~06", "addr": "桃園市中壢區環中東永福路", "dist": "中壢區", "grade": "A2" }, "geometry": { "type": "Point", "coordinates": [ 121.254772, 24.9618111 ] } },
    { "type": "Feature", "properties": { "date": "3月21日", "time": "04~06", "addr": "桃園市八德區興仁里長興路與中正路", "dist": "八德區", "grade": "A2" }, "geometry": { "type": "Point", "coordinates": [ 121.2800851, 24.9309885 ] } },
    { "type": "Feature", "properties": { "date": "3月21日", "time": "04~06", "addr": "桃園市桃園區經國天祥三街", "dist": "桃園區", "grade": "A2" }, "geometry": { "type": "Point", "coordinates": [ 121.3054809, 25.0166521 ] } },
    { "type": "Feature", "properties": { "date": "3月22日", "time": "04~06", "addr": "桃園市中壢區自強里榮民路永強街", "dist": "中壢區", "grade": "A2" }, "geometry": { "type": "Point", "coordinates": [ 121.2607526, 24.9705423 ] } },
    { "type": "Feature", "properties": { "date": "3月23日", "time": "04~06", "addr": "桃園市平鎮區廣興里義民路與育達路4巷", "dist": "平鎮區", "grade": "A2" }, "geometry": { "type": "Point", "coordinates": [ 121.2145318, 24.9519994 ] } },
    { "type": "Feature", "properties": { "date": "3月23日", "time": "04~06", "addr": "桃園市龜山區自強南路285號", "dist": "龜山區", "grade": "A2" }, "geometry": { "type": "Point", "coordinates": [ 121.3352666, 24.9902647 ] } },
    { "type": "Feature", "properties": { "date": "3月23日", "time": "04~06", "addr": "桃園市龜山區忠義路一段與光華路一段", "dist": "龜山區", "grade": "A2" }, "geometry": { "type": "Point", "coordinates": [ 121.3500753, 25.0207933 ] } },
    { "type": "Feature", "properties": { "date": "3月25日", "time": "04~06", "addr": "桃園市大園區果林里三民路二段79號", "dist": "大園區", "grade": "A2" }, "geometry": { "type": "Point", "coordinates": [ 121.254352, 25.086969 ] } },
    { "type": "Feature", "properties": { "date": "3月25日", "time": "04~06", "addr": "桃園市桃園區春日路320號", "dist": "桃園區", "grade": "A2" }, "geometry": { "type": "Point", "coordinates": [ 121.3141966, 25.0006121 ] } },
    { "type": "Feature", "properties": { "date": "3月25日", "time": "04~06", "addr": "桃園市大園區大園里中正東路與新生路", "dist": "大園區", "grade": "A2" }, "geometry": { "type": "Point", "coordinates": [ 121.1982394, 25.0655484 ] } },
    { "type": "Feature", "properties": { "date": "3月27日", "time": "04~06", "addr": "桃園市龜山區萬壽路二段與自強南路", "dist": "龜山區", "grade": "A2" }, "geometry": { "type": "Point", "coordinates": [ 121.3431885, 24.9972635 ] } },
    { "type": "Feature", "properties": { "date": "3月29日", "time": "04~06", "addr": "桃園市蘆竹區南崁路一段288號", "dist": "蘆竹區", "grade": "A2" }, "geometry": { "type": "Point", "coordinates": [ 121.2843752, 25.0544785 ] } },
    { "type": "Feature", "properties": { "date": "3月30日", "time": "04~06", "addr": "桃園市桃園區東山里復興路1號", "dist": "桃園區", "grade": "A2" }, "geometry": { "type": "Point", "coordinates": [ 121.315264, 24.9913239 ] } },
    { "type": "Feature", "properties": { "date": "3月10日", "time": "04~06", "addr": "桃園市龍潭區武中路與龍平路", "dist": "龍潭區", "grade": "A2" }, "geometry": { "type": "Point", "coordinates": [ 121.2053963, 24.8444927 ] } },
    { "type": "Feature", "properties": { "date": "3月10日", "time": "04~06", "addr": "桃園市中壢區過嶺里民族路六段286號", "dist": "中壢區", "grade": "A2" }, "geometry": { "type": "Point", "coordinates": [ 121.1604984, 24.9623008 ] } },
    { "type": "Feature", "properties": { "date": "3月10日", "time": "04~06", "addr": "桃園市八德區浮筧街125巷", "dist": "八德區", "grade": "A2" }, "geometry": { "type": "Point", "coordinates": [ 121.2591076, 24.9180475 ] } },
    { "type": "Feature", "properties": { "date": "3月10日", "time": "04~06", "addr": "桃園市龜山區萬壽路二段1180號", "dist": "龜山區", "grade": "A2" }, "geometry": { "type": "Point", "coordinates": [ 121.3319905, 24.9934849 ] } },
    { "type": "Feature", "properties": { "date": "3月11日", "time": "04~06", "addr": "桃園市楊梅區埔心里永美路中興路", "dist": "楊梅區", "grade": "A2" }, "geometry": { "type": "Point", "coordinates": [ 121.1838158, 24.9191972 ] } },
    { "type": "Feature", "properties": { "date": "3月11日", "time": "04~06", "addr": "桃園市桃園區東山里安東街安樂街", "dist": "桃園區", "grade": "A2" }, "geometry": { "type": "Point", "coordinates": [ 121.3157674, 24.9925507 ] } },
    { "type": "Feature", "properties": { "date": "3月11日", "time": "04~06", "addr": "桃園市桃園區忠義里大業路一段240號", "dist": "桃園區", "grade": "A2" }, "geometry": { "type": "Point", "coordinates": [ 121.3158307, 25.0080515 ] } },
    { "type": "Feature", "properties": { "date": "3月11日", "time": "04~06", "addr": "桃園市中壢區普忠里普忠路331號", "dist": "中壢區", "grade": "A2" }, "geometry": { "type": "Point", "coordinates": [ 121.2480762, 24.958893 ] } },
    { "type": "Feature", "properties": { "date": "3月13日", "time": "04~06", "addr": "桃園市龜山區西勢湖路98號", "dist": "龜山區", "grade": "A2" }, "geometry": { "type": "Point", "coordinates": [ 121.3680773, 25.0265148 ] } },
    { "type": "Feature", "properties": { "date": "3月13日", "time": "04~06", "addr": "桃園市大溪區仁和路二段24號", "dist": "大溪區", "grade": "A2" }, "geometry": { "type": "Point", "coordinates": [ 121.2697291, 24.9029734 ] } },
    { "type": "Feature", "properties": { "date": "3月14日", "time": "04~06", "addr": "桃園市蘆竹區油管路一段羊城一街", "dist": "蘆竹區", "grade": "A2" }, "geometry": { "type": "Point", "coordinates": [ 121.2953619, 25.0504017 ] } },
    { "type": "Feature", "properties": { "date": "3月14日", "time": "04~06", "addr": "桃園市八德區大發里和平路1190巷", "dist": "八德區", "grade": "A2" }, "geometry": { "type": "Point", "coordinates": [ 121.3260547, 24.9640642 ] } },
    { "type": "Feature", "properties": { "date": "3月14日", "time": "04~06", "addr": "桃園市龜山區忠義路二段大湖路", "dist": "龜山區", "grade": "A2" }, "geometry": { "type": "Point", "coordinates": [ 121.3542898, 25.0579827 ] } },
    { "type": "Feature", "properties": { "date": "3月15日", "time": "04~06", "addr": "桃園市大園區埔心里埔心街桃5線路", "dist": "大園區", "grade": "A2" }, "geometry": { "type": "Point", "coordinates": [ 121.2242956, 25.0540898 ] } },
    { "type": "Feature", "properties": { "date": "3月15日", "time": "04~06", "addr": "桃園市八德區崁頂路64號", "dist": "八德區", "grade": "A1" }, "geometry": { "type": "Point", "coordinates": [ 121.266293, 24.947235 ] } },
    { "type": "Feature", "properties": { "date": "3月16日", "time": "04~06", "addr": "桃園市大園區田心里大觀路234號", "dist": "大園區", "grade": "A2" }, "geometry": { "type": "Point", "coordinates": [ 121.1905218, 25.0655084 ] } },
    { "type": "Feature", "properties": { "date": "3月16日", "time": "04~06", "addr": "桃園市平鎮區新安里平東路150號", "dist": "平鎮區", "grade": "A2" }, "geometry": { "type": "Point", "coordinates": [ 121.250033, 24.917018 ] } },
    { "type": "Feature", "properties": { "date": "3月16日", "time": "04~06", "addr": "桃園市平鎮區育達路與忠孝路", "dist": "平鎮區", "grade": "A2" }, "geometry": { "type": "Point", "coordinates": [ 121.2102734, 24.9518239 ] } },
    { "type": "Feature", "properties": { "date": "3月16日", "time": "04~06", "addr": "桃園市平鎮區新勢里延平路一段233號", "dist": "平鎮區", "grade": "A2" }, "geometry": { "type": "Point", "coordinates": [ 121.2154706, 24.9501139 ] } },
    { "type": "Feature", "properties": { "date": "3月17日", "time": "04~06", "addr": "桃園市觀音區中正路212號", "dist": "觀音區", "grade": "A2" }, "geometry": { "type": "Point", "coordinates": [ 121.081414, 25.0348 ] } },
    { "type": "Feature", "properties": { "date": "3月17日", "time": "04~06", "addr": "桃園市八德區大發里和平路與福德一路", "dist": "八德區", "grade": "A2" }, "geometry": { "type": "Point", "coordinates": [ 121.3202479, 24.9611491 ] } },
    { "type": "Feature", "properties": { "date": "3月18日", "time": "04~06", "addr": "桃園市中壢區普忠里實踐路217號", "dist": "中壢區", "grade": "A2" }, "geometry": { "type": "Point", "coordinates": [ 121.2391896, 24.9570413 ] } },
    { "type": "Feature", "properties": { "date": "3月20日", "time": "04~06", "addr": "桃園市新屋區台31線北上175K處", "dist": "新屋區", "grade": "A2" }, "geometry": { "type": "Point", "coordinates": [ 121.1493672, 24.9561153 ] } },
    { "type": "Feature", "properties": { "date": "3月21日", "time": "04~06", "addr": "桃園市龍潭區高原里福源路128號", "dist": "龍潭區", "grade": "A2" }, "geometry": { "type": "Point", "coordinates": [ 121.189011, 24.827546 ] } },
    { "type": "Feature", "properties": { "date": "3月21日", "time": "04~06", "addr": "桃園市桃園區大興里春日路福山街", "dist": "桃園區", "grade": "A2" }, "geometry": { "type": "Point", "coordinates": [ 121.3096737, 25.0125813 ] } },
    { "type": "Feature", "properties": { "date": "3月22日", "time": "04~06", "addr": "桃園市龜山區自強西路長壽路481巷", "dist": "龜山區", "grade": "A2" }, "geometry": { "type": "Point", "coordinates": [ 121.3341717, 24.9968165 ] } },
    { "type": "Feature", "properties": { "date": "3月22日", "time": "04~06", "addr": "桃園市蘆竹區南崁路二段532號", "dist": "蘆竹區", "grade": "A2" }, "geometry": { "type": "Point", "coordinates": [ 121.2650224, 25.0635215 ] } },
    { "type": "Feature", "properties": { "date": "3月22日", "time": "04~06", "addr": "桃園市中壢區新興里自忠街73巷自忠街", "dist": "中壢區", "grade": "A2" }, "geometry": { "type": "Point", "coordinates": [ 121.2247053, 24.9435431 ] } },
    { "type": "Feature", "properties": { "date": "3月23日", "time": "04~06", "addr": "桃園市平鎮區金陵路五段230號", "dist": "平鎮區", "grade": "A2" }, "geometry": { "type": "Point", "coordinates": [ 121.2306196, 24.9060638 ] } },
    { "type": "Feature", "properties": { "date": "3月23日", "time": "04~06", "addr": "桃園市大溪區武嶺橋東端橋頭路", "dist": "大溪區", "grade": "A2" }, "geometry": { "type": "Point", "coordinates": [ 121.2822495, 24.889878 ] } },
    { "type": "Feature", "properties": { "date": "3月23日", "time": "04~06", "addr": "桃園市蘆竹區龍安街二段681號", "dist": "蘆竹區", "grade": "A2" }, "geometry": { "type": "Point", "coordinates": [ 121.2601935, 25.0004898 ] } },
    { "type": "Feature", "properties": { "date": "3月23日", "time": "04~06", "addr": "桃園市八德區大勇里介壽路一段自強街", "dist": "八德區", "grade": "A2" }, "geometry": { "type": "Point", "coordinates": [ 121.301164, 24.9679945 ] } },
    { "type": "Feature", "properties": { "date": "3月23日", "time": "04~06", "addr": "桃園市大溪區中華路民權東路", "dist": "大溪區", "grade": "A2" }, "geometry": { "type": "Point", "coordinates": [ 121.2944301, 24.8803844 ] } },
    { "type": "Feature", "properties": { "date": "3月24日", "time": "04~06", "addr": "桃園市八德區大發里和平路富榮街", "dist": "八德區", "grade": "A2" }, "geometry": { "type": "Point", "coordinates": [ 121.3182187, 24.9580225 ] } },
    { "type": "Feature", "properties": { "date": "3月24日", "time": "04~06", "addr": "桃園市桃園區忠義里大業路一段121巷", "dist": "桃園區", "grade": "A2" }, "geometry": { "type": "Point", "coordinates": [ 121.3167306, 25.0058731 ] } },
    { "type": "Feature", "properties": { "date": "3月25日", "time": "04~06", "addr": "桃園市桃園區復興路民生路", "dist": "桃園區", "grade": "A2" }, "geometry": { "type": "Point", "coordinates": [ 121.3149726, 24.9910757 ] } },
    { "type": "Feature", "properties": { "date": "3月25日", "time": "04~06", "addr": "桃園市蘆竹區南崁路二段與南工路", "dist": "蘆竹區", "grade": "A2" }, "geometry": { "type": "Point", "coordinates": [ 121.271628, 25.0604321 ] } },
    { "type": "Feature", "properties": { "date": "3月26日", "time": "04~06", "addr": "桃園市八德區大同里福國北街10號", "dist": "八德區", "grade": "A2" }, "geometry": { "type": "Point", "coordinates": [ 121.2945358, 24.9598313 ] } },
    { "type": "Feature", "properties": { "date": "3月27日", "time": "04~06", "addr": "桃園市八德區大順里介壽路二段361巷與介壽路二段361巷60弄", "dist": "八德區", "grade": "A2" }, "geometry": { "type": "Point", "coordinates": [ 121.2998508, 24.947254 ] } },
    { "type": "Feature", "properties": { "date": "3月27日", "time": "04~06", "addr": "桃園市平鎮區中豐路三興路", "dist": "平鎮區", "grade": "A2" }, "geometry": { "type": "Point", "coordinates": [ 121.2116849, 24.9077707 ] } },
    { "type": "Feature", "properties": { "date": "3月28日", "time": "04~06", "addr": "桃園市八德區永豐里華康街176巷與華康街176巷169弄", "dist": "八德區", "grade": "A2" }, "geometry": { "type": "Point", "coordinates": [ 121.2912463, 24.9469059 ] } },
    { "type": "Feature", "properties": { "date": "3月28日", "time": "04~06", "addr": "桃園市中壢區水尾里新生路二段393巷", "dist": "中壢區", "grade": "A2" }, "geometry": { "type": "Point", "coordinates": [ 121.2224421, 24.984521 ] } },
    { "type": "Feature", "properties": { "date": "3月28日", "time": "04~06", "addr": "桃園市桃園區永安里中正路北埔路", "dist": "桃園區", "grade": "A2" }, "geometry": { "type": "Point", "coordinates": [ 121.3059777, 25.0026923 ] } },
    { "type": "Feature", "properties": { "date": "3月28日", "time": "04~06", "addr": "桃園市桃園區大興里大業路一段雙峰路青溪", "dist": "桃園區", "grade": "A2" }, "geometry": { "type": "Point", "coordinates": [ 121.3130448, 25.01117 ] } },
    { "type": "Feature", "properties": { "date": "3月28日", "time": "04~06", "addr": "桃園市八德區大仁里桃和街136號前路", "dist": "八德區", "grade": "A2" }, "geometry": { "type": "Point", "coordinates": [ 121.3247015, 24.969875 ] } },
    { "type": "Feature", "properties": { "date": "3月29日", "time": "04~06", "addr": "桃園市中壢區高鐵北路三段領航南路四段", "dist": "中壢區", "grade": "A2" }, "geometry": { "type": "Point", "coordinates": [ 121.2019408, 25.0003332 ] } },
    { "type": "Feature", "properties": { "date": "3月29日", "time": "04~06", "addr": "桃園市桃園區龍泉五街130號", "dist": "桃園區", "grade": "A2" }, "geometry": { "type": "Point", "coordinates": [ 121.269893, 24.9821989 ] } },
    { "type": "Feature", "properties": { "date": "3月30日", "time": "04~06", "addr": "桃園市中壢區大德街德泉街", "dist": "中壢區", "grade": "A2" }, "geometry": { "type": "Point", "coordinates": [ 121.2260679, 24.9369757 ] } },
    { "type": "Feature", "properties": { "date": "3月31日", "time": "04~06", "addr": "桃園市中壢區東興里新興路194巷", "dist": "中壢區", "grade": "A2" }, "geometry": { "type": "Point", "coordinates": [ 121.2273374, 24.9530994 ] } },
    { "type": "Feature", "properties": { "date": "3月31日", "time": "04~06", "addr": "桃園市桃園區中路里國際路二段42號", "dist": "桃園區", "grade": "A2" }, "geometry": { "type": "Point", "coordinates": [ 121.2884308, 24.9911733 ] } },
    { "type": "Feature", "properties": { "date": "3月1日", "time": "06~08", "addr": "桃園市大園區田心里華興路一段52號", "dist": "大園區", "grade": "A2" }, "geometry": { "type": "Point", "coordinates": [ 121.1964012, 25.0553974 ] } },
    { "type": "Feature", "properties": { "date": "3月1日", "time": "06~08", "addr": "桃園市平鎮區中興路平鎮段15114燈桿", "dist": "平鎮區", "grade": "A2" }, "geometry": { "type": "Point", "coordinates": [ 121.1938339, 24.8960772 ] } },
    { "type": "Feature", "properties": { "date": "3月1日", "time": "06~08", "addr": "桃園市八德區永豐路與中華路", "dist": "八德區", "grade": "A2" }, "geometry": { "type": "Point", "coordinates": [ 121.2760757, 24.9695402 ] } },
    { "type": "Feature", "properties": { "date": "3月1日", "time": "06~08", "addr": "桃園市八德區大發里和平路970巷", "dist": "八德區", "grade": "A2" }, "geometry": { "type": "Point", "coordinates": [ 121.3209692, 24.9607851 ] } },
    { "type": "Feature", "properties": { "date": "3月1日", "time": "06~08", "addr": "桃園市中壢區水尾里大圳路近掩埋場方向", "dist": "中壢區", "grade": "A2" }, "geometry": { "type": "Point", "coordinates": [ 121.2258799, 24.9878964 ] } },
    { "type": "Feature", "properties": { "date": "3月1日", "time": "06~08", "addr": "桃園市楊梅區豐野里民生街92號", "dist": "楊梅區", "grade": "A2" }, "geometry": { "type": "Point", "coordinates": [ 121.084079, 24.9378268 ] } },
    { "type": "Feature", "properties": { "date": "3月1日", "time": "06~08", "addr": "桃園市龜山區萬壽路二段933巷與中和南路", "dist": "龜山區", "grade": "A2" }, "geometry": { "type": "Point", "coordinates": [ 121.3431885, 24.9972635 ] } },
    { "type": "Feature", "properties": { "date": "3月1日", "time": "06~08", "addr": "桃園市龜山區南祥路與南上路", "dist": "龜山區", "grade": "A2" }, "geometry": { "type": "Point", "coordinates": [ 121.3007398, 25.0479772 ] } },
    { "type": "Feature", "properties": { "date": "3月1日", "time": "06~08", "addr": "桃園市八德區忠勇街義勇街", "dist": "八德區", "grade": "A2" }, "geometry": { "type": "Point", "coordinates": [ 121.3040308, 24.9636294 ] } },
    { "type": "Feature", "properties": { "date": "3月1日", "time": "06~08", "addr": "桃園市觀音區保障里成功路一段與桃34線路", "dist": "觀音區", "grade": "A2" }, "geometry": { "type": "Point", "coordinates": [ 121.1455888, 25.0538639 ] } },
    { "type": "Feature", "properties": { "date": "3月1日", "time": "06~08", "addr": "桃園市桃園區春日里向善街60巷70號", "dist": "桃園區", "grade": "A2" }, "geometry": { "type": "Point", "coordinates": [ 121.3114877, 25.0189188 ] } },
    { "type": "Feature", "properties": { "date": "3月1日", "time": "06~08", "addr": "桃園市觀音區樹林里成功路二段869號", "dist": "觀音區", "grade": "A2" }, "geometry": { "type": "Point", "coordinates": [ 121.117473, 25.05104 ] } },
    { "type": "Feature", "properties": { "date": "3月1日", "time": "06~08", "addr": "桃園市楊梅區紅梅里秀才路環南路", "dist": "楊梅區", "grade": "A2" }, "geometry": { "type": "Point", "coordinates": [ 121.1429509, 24.9049998 ] } },
    { "type": "Feature", "properties": { "date": "3月2日", "time": "06~08", "addr": "桃園市蘆竹區宏竹里大華街富華路一段", "dist": "蘆竹區", "grade": "A2" }, "geometry": { "type": "Point", "coordinates": [ 121.2567546, 25.0508676 ] } },
    { "type": "Feature", "properties": { "date": "3月2日", "time": "06~08", "addr": "桃園市觀音區廣興里大觀路四段與成功路二段", "dist": "觀音區", "grade": "A2" }, "geometry": { "type": "Point", "coordinates": [ 121.3009798, 24.9936281 ] } },
    { "type": "Feature", "properties": { "date": "3月2日", "time": "06~08", "addr": "桃園市中壢區延平路285號", "dist": "中壢區", "grade": "A2" }, "geometry": { "type": "Point", "coordinates": [ 121.2262905, 24.9609044 ] } },
    { "type": "Feature", "properties": { "date": "3月2日", "time": "06~08", "addr": "桃園市桃園區中興里永安路永康街", "dist": "桃園區", "grade": "A2" }, "geometry": { "type": "Point", "coordinates": [ 121.3025416, 24.9989055 ] } },
    { "type": "Feature", "properties": { "date": "3月2日", "time": "06~08", "addr": "桃園市平鎮區金陵路與平東路", "dist": "平鎮區", "grade": "A2" }, "geometry": { "type": "Point", "coordinates": [ 121.2238996, 24.9383595 ] } },
    { "type": "Feature", "properties": { "date": "3月2日", "time": "06~08", "addr": "桃園市楊梅區中興路145號", "dist": "楊梅區", "grade": "A2" }, "geometry": { "type": "Point", "coordinates": [ 121.1863947, 24.9150272 ] } },
    { "type": "Feature", "properties": { "date": "3月2日", "time": "06~08", "addr": "桃園市中壢區普忠路211巷", "dist": "中壢區", "grade": "A2" }, "geometry": { "type": "Point", "coordinates": [ 121.2458836, 24.9631419 ] } },
    { "type": "Feature", "properties": { "date": "3月2日", "time": "06~08", "addr": "桃園市平鎮區新貴里中豐路584號", "dist": "平鎮區", "grade": "A2" }, "geometry": { "type": "Point", "coordinates": [ 121.214545, 24.933797 ] } },
    { "type": "Feature", "properties": { "date": "3月2日", "time": "06~08", "addr": "桃園市桃園區南平路287號", "dist": "桃園區", "grade": "A2" }, "geometry": { "type": "Point", "coordinates": [ 121.3040943, 25.0204633 ] } },
    { "type": "Feature", "properties": { "date": "3月2日", "time": "06~08", "addr": "桃園市平鎮區新光路二段31巷2弄13號", "dist": "平鎮區", "grade": "A2" }, "geometry": { "type": "Point", "coordinates": [ 121.2051715, 24.9319106 ] } },
    { "type": "Feature", "properties": { "date": "3月2日", "time": "06~08", "addr": "桃園市桃園區忠義里成功路三段1號", "dist": "桃園區", "grade": "A2" }, "geometry": { "type": "Point", "coordinates": [ 121.3246178, 25.0045175 ] } },
    { "type": "Feature", "properties": { "date": "3月2日", "time": "06~08", "addr": "桃園市桃園區汴洲里春日路1262號", "dist": "桃園區", "grade": "A2" }, "geometry": { "type": "Point", "coordinates": [ 121.3066958, 25.0245069 ] } },
    { "type": "Feature", "properties": { "date": "3月2日", "time": "06~08", "addr": "桃園市觀音區樹林里工業五路與經建七路", "dist": "觀音區", "grade": "A2" }, "geometry": { "type": "Point", "coordinates": [ 121.3009798, 24.9936281 ] } },
    { "type": "Feature", "properties": { "date": "3月2日", "time": "06~08", "addr": "桃園市桃園區民光東路福元街", "dist": "桃園區", "grade": "A2" }, "geometry": { "type": "Point", "coordinates": [ 121.3172246, 25.0077204 ] } },
    { "type": "Feature", "properties": { "date": "3月2日", "time": "06~08", "addr": "桃園市楊梅區高榮里高上路450號", "dist": "楊梅區", "grade": "A2" }, "geometry": { "type": "Point", "coordinates": [ 121.152501, 24.9433811 ] } },
    { "type": "Feature", "properties": { "date": "3月3日", "time": "06~08", "addr": "桃園市蘆竹區新生路242號", "dist": "蘆竹區", "grade": "A2" }, "geometry": { "type": "Point", "coordinates": [ 121.2448527, 25.0279951 ] } },
    { "type": "Feature", "properties": { "date": "3月3日", "time": "06~08", "addr": "桃園市龍潭區中正路上華段14號", "dist": "龍潭區", "grade": "A2" }, "geometry": { "type": "Point", "coordinates": [ 121.2213295, 24.8535069 ] } },
    { "type": "Feature", "properties": { "date": "3月3日", "time": "06~08", "addr": "桃園市八德區大勇里忠勇二街與忠勇六街", "dist": "八德區", "grade": "A2" }, "geometry": { "type": "Point", "coordinates": [ 121.3055078, 24.9663196 ] } },
    { "type": "Feature", "properties": { "date": "3月3日", "time": "06~08", "addr": "桃園市大園區田心里大觀路華興路", "dist": "大園區", "grade": "A2" }, "geometry": { "type": "Point", "coordinates": [ 121.1929994, 25.0652098 ] } },
    { "type": "Feature", "properties": { "date": "3月3日", "time": "06~08", "addr": "桃園市桃園區三民路三段永美街", "dist": "桃園區", "grade": "A2" }, "geometry": { "type": "Point", "coordinates": [ 121.3075309, 24.9831576 ] } },
    { "type": "Feature", "properties": { "date": "3月3日", "time": "06~08", "addr": "桃園市平鎮區平德街164巷", "dist": "平鎮區", "grade": "A2" }, "geometry": { "type": "Point", "coordinates": [ 121.1974278, 24.9276776 ] } },
    { "type": "Feature", "properties": { "date": "3月3日", "time": "06~08", "addr": "桃園市大溪區仁和路一段與隆德街", "dist": "大溪區", "grade": "A2" }, "geometry": { "type": "Point", "coordinates": [ 121.2760765, 24.9006686 ] } },
    { "type": "Feature", "properties": { "date": "3月3日", "time": "06~08", "addr": "桃園市中壢區民權路三段334巷", "dist": "中壢區", "grade": "A2" }, "geometry": { "type": "Point", "coordinates": [ 121.2139456, 24.9767492 ] } },
    { "type": "Feature", "properties": { "date": "3月3日", "time": "06~08", "addr": "桃園市楊梅區大同里新農街85號", "dist": "楊梅區", "grade": "A2" }, "geometry": { "type": "Point", "coordinates": [ 121.1492052, 24.909736 ] } },
    { "type": "Feature", "properties": { "date": "3月3日", "time": "06~08", "addr": "桃園市中壢區永福里吉林路1號", "dist": "中壢區", "grade": "A2" }, "geometry": { "type": "Point", "coordinates": [ 121.2500354, 24.9850433 ] } },
    { "type": "Feature", "properties": { "date": "3月3日", "time": "06~08", "addr": "桃園市蘆竹區大華街65號", "dist": "蘆竹區", "grade": "A2" }, "geometry": { "type": "Point", "coordinates": [ 121.253684, 25.0369369 ] } },
    { "type": "Feature", "properties": { "date": "3月3日", "time": "06~08", "addr": "桃園市桃園區富國路962巷富國路", "dist": "桃園區", "grade": "A2" }, "geometry": { "type": "Point", "coordinates": [ 121.2775939, 25.0260062 ] } },
    { "type": "Feature", "properties": { "date": "3月4日", "time": "06~08", "addr": "桃園市龜山區文化一路33號", "dist": "龜山區", "grade": "A2" }, "geometry": { "type": "Point", "coordinates": [ 121.3703196, 25.0611311 ] } },
    { "type": "Feature", "properties": { "date": "3月4日", "time": "06~08", "addr": "桃園市中壢區龍岡地下道", "dist": "中壢區", "grade": "A2" }, "geometry": { "type": "Point", "coordinates": [ 121.2260272, 24.9533744 ] } },
    { "type": "Feature", "properties": { "date": "3月4日", "time": "06~08", "addr": "桃園市中壢區月眉路一段146巷", "dist": "中壢區", "grade": "A2" }, "geometry": { "type": "Point", "coordinates": [ 121.1798759, 24.9959426 ] } },
    { "type": "Feature", "properties": { "date": "3月4日", "time": "06~08", "addr": "桃園市平鎮區義興里延平路二段76號", "dist": "平鎮區", "grade": "A2" }, "geometry": { "type": "Point", "coordinates": [ 121.2121004, 24.9495816 ] } },
    { "type": "Feature", "properties": { "date": "3月4日", "time": "06~08", "addr": "桃園市中壢區中山東路三段369號", "dist": "中壢區", "grade": "A2" }, "geometry": { "type": "Point", "coordinates": [ 121.2524025, 24.9402983 ] } },
    { "type": "Feature", "properties": { "date": "3月4日", "time": "06~08", "addr": "桃園市平鎮區新興路92號", "dist": "平鎮區", "grade": "A2" }, "geometry": { "type": "Point", "coordinates": [ 121.2096197, 24.9503565 ] } },
    { "type": "Feature", "properties": { "date": "3月4日", "time": "06~08", "addr": "桃園市平鎮區延平路二段與育英路", "dist": "平鎮區", "grade": "A2" }, "geometry": { "type": "Point", "coordinates": [ 121.2118517, 24.9488278 ] } },
    { "type": "Feature", "properties": { "date": "3月4日", "time": "06~08", "addr": "桃園市八德區白鷺里華康街176巷281號", "dist": "八德區", "grade": "A2" }, "geometry": { "type": "Point", "coordinates": [ 121.2653206, 24.9683781 ] } },
    { "type": "Feature", "properties": { "date": "3月4日", "time": "06~08", "addr": "桃園市龜山區茶磚路與兔坑路", "dist": "龜山區", "grade": "A2" }, "geometry": { "type": "Point", "coordinates": [ 121.3655989, 25.0199092 ] } },
    { "type": "Feature", "properties": { "date": "3月5日", "time": "06~08", "addr": "桃園市平鎮區環南路301巷", "dist": "平鎮區", "grade": "A2" }, "geometry": { "type": "Point", "coordinates": [ 121.2066417, 24.9502343 ] } },
    { "type": "Feature", "properties": { "date": "3月5日", "time": "06~08", "addr": "桃園市大溪區環湖路51公里處", "dist": "大溪區", "grade": "A2" }, "geometry": { "type": "Point", "coordinates": [ 121.2474787, 24.8123429 ] } },
    { "type": "Feature", "properties": { "date": "3月5日", "time": "06~08", "addr": "桃園市八德區茄明里中華路與高城路", "dist": "八德區", "grade": "A2" }, "geometry": { "type": "Point", "coordinates": [ 121.2771555, 24.9825784 ] } },
    { "type": "Feature", "properties": { "date": "3月5日", "time": "06~08", "addr": "桃園市中壢區東園路與吉林路", "dist": "中壢區", "grade": "A2" }, "geometry": { "type": "Point", "coordinates": [ 121.2396582, 24.9762532 ] } },
    { "type": "Feature", "properties": { "date": "3月6日", "time": "06~08", "addr": "桃園市平鎮區南東路226巷", "dist": "平鎮區", "grade": "A2" }, "geometry": { "type": "Point", "coordinates": [ 121.2159386, 24.9191212 ] } },
    { "type": "Feature", "properties": { "date": "3月7日", "time": "06~08", "addr": "桃園市桃園區廈門街15號", "dist": "桃園區", "grade": "A2" }, "geometry": { "type": "Point", "coordinates": [ 121.299728, 24.9946489 ] } },
    { "type": "Feature", "properties": { "date": "3月7日", "time": "06~08", "addr": "桃園市八德區瑞豐里興豐路豐田路", "dist": "八德區", "grade": "A2" }, "geometry": { "type": "Point", "coordinates": [ 121.2894838, 24.9298365 ] } },
    { "type": "Feature", "properties": { "date": "3月7日", "time": "06~08", "addr": "桃園市平鎮區新安里平東路27號", "dist": "平鎮區", "grade": "A2" }, "geometry": { "type": "Point", "coordinates": [ 121.2533638, 24.9181358 ] } },
    { "type": "Feature", "properties": { "date": "3月7日", "time": "06~08", "addr": "桃園市龜山區萬壽路二段933巷", "dist": "龜山區", "grade": "A2" }, "geometry": { "type": "Point", "coordinates": [ 121.3431885, 24.9972635 ] } },
    { "type": "Feature", "properties": { "date": "3月7日", "time": "06~08", "addr": "桃園市大園區大園里中山南路和平西路", "dist": "大園區", "grade": "A2" }, "geometry": { "type": "Point", "coordinates": [ 121.1991324, 25.0601698 ] } },
    { "type": "Feature", "properties": { "date": "3月8日", "time": "06~08", "addr": "桃園市桃園區泰山里復興路441巷復興路", "dist": "桃園區", "grade": "A2" }, "geometry": { "type": "Point", "coordinates": [ 121.3014097, 24.9915157 ] } },
    { "type": "Feature", "properties": { "date": "3月8日", "time": "06~08", "addr": "桃園市八德區龍南路418號", "dist": "八德區", "grade": "A2" }, "geometry": { "type": "Point", "coordinates": [ 121.2540875, 24.9191542 ] } },
    { "type": "Feature", "properties": { "date": "3月8日", "time": "06~08", "addr": "桃園市桃園區汴洲里春日路1643號", "dist": "桃園區", "grade": "A2" }, "geometry": { "type": "Point", "coordinates": [ 121.3058161, 25.0259375 ] } },
    { "type": "Feature", "properties": { "date": "3月8日", "time": "06~08", "addr": "桃園市龜山區大同路268號", "dist": "龜山區", "grade": "A2" }, "geometry": { "type": "Point", "coordinates": [ 121.3452684, 24.9893182 ] } },
    { "type": "Feature", "properties": { "date": "3月8日", "time": "06~08", "addr": "桃園市中壢區恩德街與慈惠二街", "dist": "中壢區", "grade": "A2" }, "geometry": { "type": "Point", "coordinates": [ 121.2238648, 24.9605741 ] } },
    { "type": "Feature", "properties": { "date": "3月8日", "time": "06~08", "addr": "桃園市中壢區復華街與復華街75巷", "dist": "中壢區", "grade": "A2" }, "geometry": { "type": "Point", "coordinates": [ 121.2480432, 24.9733306 ] } },
    { "type": "Feature", "properties": { "date": "3月8日", "time": "06~08", "addr": "桃園市中壢區中壢區幸福新村28號", "dist": "中壢區", "grade": "A2" }, "geometry": { "type": "Point", "coordinates": [ 121.21934, 24.962987 ] } },
    { "type": "Feature", "properties": { "date": "3月9日", "time": "06~08", "addr": "桃園市龜山區文明路台電", "dist": "龜山區", "grade": "A2" }, "geometry": { "type": "Point", "coordinates": [ 121.3786524, 25.057807 ] } },
    { "type": "Feature", "properties": { "date": "3月9日", "time": "06~08", "addr": "桃園市桃園區中華路與三民路", "dist": "桃園區", "grade": "A2" }, "geometry": { "type": "Point", "coordinates": [ 121.3097625, 24.9905684 ] } },
    { "type": "Feature", "properties": { "date": "3月9日", "time": "06~08", "addr": "桃園市楊梅區大同里自立街93巷", "dist": "楊梅區", "grade": "A2" }, "geometry": { "type": "Point", "coordinates": [ 121.1515531, 24.9121132 ] } },
    { "type": "Feature", "properties": { "date": "3月9日", "time": "06~08", "addr": "桃園市八德區大愛里重慶街177巷和平路", "dist": "八德區", "grade": "A2" }, "geometry": { "type": "Point", "coordinates": [ 121.3041576, 24.9576362 ] } },
    { "type": "Feature", "properties": { "date": "3月9日", "time": "06~08", "addr": "桃園市楊梅區梅獅路二段577號", "dist": "楊梅區", "grade": "A2" }, "geometry": { "type": "Point", "coordinates": [ 121.1838985, 24.8987681 ] } },
    { "type": "Feature", "properties": { "date": "3月9日", "time": "06~08", "addr": "桃園市大溪區康莊路496號", "dist": "大溪區", "grade": "A2" }, "geometry": { "type": "Point", "coordinates": [ 121.2859456, 24.871933 ] } },
    { "type": "Feature", "properties": { "date": "3月9日", "time": "06~08", "addr": "桃園市桃園區春日里大業路二段212號", "dist": "桃園區", "grade": "A2" }, "geometry": { "type": "Point", "coordinates": [ 121.3105274, 25.0203782 ] } },
    { "type": "Feature", "properties": { "date": "3月9日", "time": "06~08", "addr": "桃園市觀音區坑尾里廣玉路130號", "dist": "觀音區", "grade": "A2" }, "geometry": { "type": "Point", "coordinates": [ 121.3009798, 24.9936281 ] } },
    { "type": "Feature", "properties": { "date": "3月9日", "time": "06~08", "addr": "桃園市八德區高城二街33巷高城六街", "dist": "八德區", "grade": "A2" }, "geometry": { "type": "Point", "coordinates": [ 121.2750697, 24.9788046 ] } },
    { "type": "Feature", "properties": { "date": "3月9日", "time": "06~08", "addr": "桃園市觀音區塔腳里廣大路與廣福里7鄰路", "dist": "觀音區", "grade": "A2" }, "geometry": { "type": "Point", "coordinates": [ 121.3009798, 24.9936281 ] } },
    { "type": "Feature", "properties": { "date": "3月9日", "time": "06~08", "addr": "桃園市蘆竹區南崁路二段38號", "dist": "蘆竹區", "grade": "A2" }, "geometry": { "type": "Point", "coordinates": [ 121.279682, 25.057177 ] } },
    { "type": "Feature", "properties": { "date": "3月9日", "time": "06~08", "addr": "桃園市八德區桃和街58號", "dist": "八德區", "grade": "A2" }, "geometry": { "type": "Point", "coordinates": [ 121.3273384, 24.9705727 ] } },
    { "type": "Feature", "properties": { "date": "3月9日", "time": "06~08", "addr": "桃園市蘆竹區中正路346號", "dist": "蘆竹區", "grade": "A2" }, "geometry": { "type": "Point", "coordinates": [ 121.291129, 25.049755 ] } },
    { "type": "Feature", "properties": { "date": "3月9日", "time": "06~08", "addr": "桃園市桃園區桃鶯路438號", "dist": "桃園區", "grade": "A2" }, "geometry": { "type": "Point", "coordinates": [ 121.32386, 24.974403 ] } },
    { "type": "Feature", "properties": { "date": "3月1日", "time": "06~08", "addr": "桃園市中壢區中園路158號", "dist": "中壢區", "grade": "A2" }, "geometry": { "type": "Point", "coordinates": [ 121.2366736, 24.9675998 ] } },
    { "type": "Feature", "properties": { "date": "3月1日", "time": "06~08", "addr": "桃園市觀音區坑尾里台15線與坑尾里1112鄰產業道路", "dist": "觀音區", "grade": "A2" }, "geometry": { "type": "Point", "coordinates": [ 121.3009798, 24.9936281 ] } },
    { "type": "Feature", "properties": { "date": "3月1日", "time": "06~08", "addr": "桃園市中壢區龍岡路二段305號", "dist": "中壢區", "grade": "A2" }, "geometry": { "type": "Point", "coordinates": [ 121.2302048, 24.9423467 ] } },
    { "type": "Feature", "properties": { "date": "3月1日", "time": "06~08", "addr": "桃園市龜山區中和南路自強南路", "dist": "龜山區", "grade": "A2" }, "geometry": { "type": "Point", "coordinates": [ 121.3326106, 24.9930175 ] } },
    { "type": "Feature", "properties": { "date": "3月1日", "time": "06~08", "addr": "桃園市八德區介壽路二段43號", "dist": "八德區", "grade": "A2" }, "geometry": { "type": "Point", "coordinates": [ 121.2992415, 24.9568621 ] } },
    { "type": "Feature", "properties": { "date": "3月1日", "time": "06~08", "addr": "桃園市楊梅區四維里文化街295巷", "dist": "楊梅區", "grade": "A2" }, "geometry": { "type": "Point", "coordinates": [ 121.1832947, 24.9100064 ] } },
    { "type": "Feature", "properties": { "date": "3月1日", "time": "06~08", "addr": "桃園市龜山區山鶯路與國光巷", "dist": "龜山區", "grade": "A2" }, "geometry": { "type": "Point", "coordinates": [ 121.3272824, 24.9858626 ] } },
    { "type": "Feature", "properties": { "date": "3月1日", "time": "06~08", "addr": "桃園市八德區大明街大福街", "dist": "八德區", "grade": "A2" }, "geometry": { "type": "Point", "coordinates": [ 121.2993481, 24.9689429 ] } },
    { "type": "Feature", "properties": { "date": "3月1日", "time": "06~08", "addr": "桃園市大園區田心里和平西路141號", "dist": "大園區", "grade": "A2" }, "geometry": { "type": "Point", "coordinates": [ 121.1962827, 25.0569268 ] } },
    { "type": "Feature", "properties": { "date": "3月1日", "time": "06~08", "addr": "桃園市桃園區龍壽里龍壽街210之12號", "dist": "桃園區", "grade": "A2" }, "geometry": { "type": "Point", "coordinates": [ 121.267795, 24.987869 ] } },
    { "type": "Feature", "properties": { "date": "3月1日", "time": "06~08", "addr": "桃園市桃園區春日里大興路民有三街", "dist": "桃園區", "grade": "A2" }, "geometry": { "type": "Point", "coordinates": [ 121.3127648, 25.0159076 ] } },
    { "type": "Feature", "properties": { "date": "3月1日", "time": "06~08", "addr": "桃園市新屋區清華里新華路景碩幼兒園", "dist": "新屋區", "grade": "A2" }, "geometry": { "type": "Point", "coordinates": [ 121.1142152, 24.9951767 ] } },
    { "type": "Feature", "properties": { "date": "3月1日", "time": "06~08", "addr": "桃園市中壢區慈惠三街與慈惠一街", "dist": "中壢區", "grade": "A2" }, "geometry": { "type": "Point", "coordinates": [ 121.225577, 24.9634852 ] } },
    { "type": "Feature", "properties": { "date": "3月2日", "time": "06~08", "addr": "桃園市中壢區中華路二段與普義路", "dist": "中壢區", "grade": "A2" }, "geometry": { "type": "Point", "coordinates": [ 121.2373174, 24.9645956 ] } },
    { "type": "Feature", "properties": { "date": "3月2日", "time": "06~08", "addr": "桃園市桃園區中山路425巷", "dist": "桃園區", "grade": "A2" }, "geometry": { "type": "Point", "coordinates": [ 121.3001907, 24.9918297 ] } },
    { "type": "Feature", "properties": { "date": "3月2日", "time": "06~08", "addr": "桃園市大溪區仁和路一段60巷", "dist": "大溪區", "grade": "A2" }, "geometry": { "type": "Point", "coordinates": [ 121.2760765, 24.9006686 ] } },
    { "type": "Feature", "properties": { "date": "3月2日", "time": "06~08", "addr": "桃園市中壢區文化路長春二路", "dist": "中壢區", "grade": "A2" }, "geometry": { "type": "Point", "coordinates": [ 121.2503327, 24.9795994 ] } },
    { "type": "Feature", "properties": { "date": "3月2日", "time": "06~08", "addr": "桃園市新屋區頭洲里台31線175K北上側車道", "dist": "新屋區", "grade": "A2" }, "geometry": { "type": "Point", "coordinates": [ 121.1493672, 24.9561153 ] } },
    { "type": "Feature", "properties": { "date": "3月2日", "time": "06~08", "addr": "桃園市八德區建國與仁德一街", "dist": "八德區", "grade": "A2" }, "geometry": { "type": "Point", "coordinates": [ 121.2912463, 24.9469059 ] } },
    { "type": "Feature", "properties": { "date": "3月2日", "time": "06~08", "addr": "桃園市平鎮區湧安里工業南路249號", "dist": "平鎮區", "grade": "A2" }, "geometry": { "type": "Point", "coordinates": [ 121.19878, 24.896032 ] } },
    { "type": "Feature", "properties": { "date": "3月2日", "time": "06~08", "addr": "桃園市龍潭區中豐路上林段331號", "dist": "龍潭區", "grade": "A2" }, "geometry": { "type": "Point", "coordinates": [ 121.2038988, 24.859698 ] } },
    { "type": "Feature", "properties": { "date": "3月2日", "time": "06~08", "addr": "桃園市平鎮區快速路二段986巷", "dist": "平鎮區", "grade": "A2" }, "geometry": { "type": "Point", "coordinates": [ 121.2231586, 24.9209514 ] } },
    { "type": "Feature", "properties": { "date": "3月2日", "time": "06~08", "addr": "桃園市觀音區樹林里新村路二段與榮工橋", "dist": "觀音區", "grade": "A2" }, "geometry": { "type": "Point", "coordinates": [ 121.1268035, 25.0620144 ] } },
    { "type": "Feature", "properties": { "date": "3月2日", "time": "06~08", "addr": "桃園市楊梅區頭湖里楊湖路一段676巷", "dist": "楊梅區", "grade": "A2" }, "geometry": { "type": "Point", "coordinates": [ 121.1308958, 24.9126981 ] } },
    { "type": "Feature", "properties": { "date": "3月2日", "time": "06~08", "addr": "桃園市龜山區振興路與華亞三路", "dist": "龜山區", "grade": "A2" }, "geometry": { "type": "Point", "coordinates": [ 121.3642799, 25.022258 ] } },
    { "type": "Feature", "properties": { "date": "3月2日", "time": "06~08", "addr": "桃園市龍潭區龍祥里聖亭路300巷干城路315巷", "dist": "龍潭區", "grade": "A2" }, "geometry": { "type": "Point", "coordinates": [ 121.2066463, 24.8722789 ] } },
    { "type": "Feature", "properties": { "date": "3月3日", "time": "06~08", "addr": "桃園市八德區和平路276巷", "dist": "八德區", "grade": "A2" }, "geometry": { "type": "Point", "coordinates": [ 121.3058595, 24.9559975 ] } },
    { "type": "Feature", "properties": { "date": "3月3日", "time": "06~08", "addr": "桃園市桃園區春日路1228號", "dist": "桃園區", "grade": "A2" }, "geometry": { "type": "Point", "coordinates": [ 121.3070298, 25.0236653 ] } },
    { "type": "Feature", "properties": { "date": "3月3日", "time": "06~08", "addr": "桃園市龜山區忠義路三段199號", "dist": "龜山區", "grade": "A2" }, "geometry": { "type": "Point", "coordinates": [ 121.354672, 25.0632 ] } },
    { "type": "Feature", "properties": { "date": "3月4日", "time": "06~08", "addr": "桃園市桃園區慈文里慈文路493號", "dist": "桃園區", "grade": "A2" }, "geometry": { "type": "Point", "coordinates": [ 121.2982436, 25.0037339 ] } },
    { "type": "Feature", "properties": { "date": "3月4日", "time": "06~08", "addr": "桃園市中壢區龍安街25巷龍安街", "dist": "中壢區", "grade": "A2" }, "geometry": { "type": "Point", "coordinates": [ 121.2466536, 24.9452122 ] } },
    { "type": "Feature", "properties": { "date": "3月4日", "time": "06~08", "addr": "桃園市龜山區萬壽振興路", "dist": "龜山區", "grade": "A2" }, "geometry": { "type": "Point", "coordinates": [ 121.351837, 25.0058171 ] } },
    { "type": "Feature", "properties": { "date": "3月4日", "time": "06~08", "addr": "桃園市龍潭區中原路與高原路", "dist": "龍潭區", "grade": "A2" }, "geometry": { "type": "Point", "coordinates": [ 121.1951904, 24.8385037 ] } },
    { "type": "Feature", "properties": { "date": "3月4日", "time": "06~08", "addr": "桃園市桃園區北門里永樂街新生路", "dist": "桃園區", "grade": "A2" }, "geometry": { "type": "Point", "coordinates": [ 121.3105316, 24.9976518 ] } },
    { "type": "Feature", "properties": { "date": "3月4日", "time": "06~08", "addr": "桃園市平鎮區中豐路與關爺西路", "dist": "平鎮區", "grade": "A2" }, "geometry": { "type": "Point", "coordinates": [ 121.2162723, 24.9401738 ] } },
    { "type": "Feature", "properties": { "date": "3月4日", "time": "06~08", "addr": "桃園市中壢區延平路47號", "dist": "中壢區", "grade": "A2" }, "geometry": { "type": "Point", "coordinates": [ 121.2325252, 24.9633817 ] } },
    { "type": "Feature", "properties": { "date": "3月4日", "time": "06~08", "addr": "桃園市八德區永豐路廣福路", "dist": "八德區", "grade": "A2" }, "geometry": { "type": "Point", "coordinates": [ 121.2791484, 24.960691 ] } },
    { "type": "Feature", "properties": { "date": "3月4日", "time": "06~08", "addr": "桃園市桃園區國際大興西路", "dist": "桃園區", "grade": "A2" }, "geometry": { "type": "Point", "coordinates": [ 121.2868244, 25.0020705 ] } },
    { "type": "Feature", "properties": { "date": "3月4日", "time": "06~08", "addr": "桃園市桃園區慈文路401號", "dist": "桃園區", "grade": "A2" }, "geometry": { "type": "Point", "coordinates": [ 121.3003496, 25.0051033 ] } },
    { "type": "Feature", "properties": { "date": "3月5日", "time": "06~08", "addr": "桃園市龜山區長壽路213號", "dist": "龜山區", "grade": "A2" }, "geometry": { "type": "Point", "coordinates": [ 121.3328794, 24.9973819 ] } },
    { "type": "Feature", "properties": { "date": "3月5日", "time": "06~08", "addr": "桃園市大園區大園里新興路中正西路", "dist": "大園區", "grade": "A2" }, "geometry": { "type": "Point", "coordinates": [ 121.1946558, 25.0633647 ] } },
    { "type": "Feature", "properties": { "date": "3月6日", "time": "06~08", "addr": "桃園市平鎮區湧光里湧峰路52巷", "dist": "平鎮區", "grade": "A2" }, "geometry": { "type": "Point", "coordinates": [ 121.2084248, 24.8983051 ] } },
    { "type": "Feature", "properties": { "date": "3月6日", "time": "06~08", "addr": "桃園市中壢區新中北路二段43號", "dist": "中壢區", "grade": "A2" }, "geometry": { "type": "Point", "coordinates": [ 121.2592463, 24.956944 ] } },
    { "type": "Feature", "properties": { "date": "3月6日", "time": "06~08", "addr": "桃園市中壢區內厝里中正路二段363巷", "dist": "中壢區", "grade": "A2" }, "geometry": { "type": "Point", "coordinates": [ 121.1934689, 24.9795397 ] } },
    { "type": "Feature", "properties": { "date": "3月7日", "time": "06~08", "addr": "桃園市觀音區金湖里中山路一段1130號", "dist": "觀音區", "grade": "A2" }, "geometry": { "type": "Point", "coordinates": [ 121.1092996, 25.02757 ] } },
    { "type": "Feature", "properties": { "date": "3月7日", "time": "06~08", "addr": "桃園市大園區大園里華興路仁德路", "dist": "大園區", "grade": "A2" }, "geometry": { "type": "Point", "coordinates": [ 121.1968057, 25.0547909 ] } },
    { "type": "Feature", "properties": { "date": "3月7日", "time": "06~08", "addr": "桃園市中壢區龍岡路二段與星文二街", "dist": "中壢區", "grade": "A2" }, "geometry": { "type": "Point", "coordinates": [ 121.2298695, 24.9431301 ] } },
    { "type": "Feature", "properties": { "date": "3月7日", "time": "06~08", "addr": "桃園市桃園區玉山里大同西路70號", "dist": "桃園區", "grade": "A2" }, "geometry": { "type": "Point", "coordinates": [ 121.302304, 24.988003 ] } },
    { "type": "Feature", "properties": { "date": "3月7日", "time": "06~08", "addr": "桃園市平鎮區民族路三段高雙路", "dist": "平鎮區", "grade": "A2" }, "geometry": { "type": "Point", "coordinates": [ 121.1921572, 24.9587074 ] } },
    { "type": "Feature", "properties": { "date": "3月8日", "time": "06~08", "addr": "桃園市大園區橫峰里中山南路一段78巷", "dist": "大園區", "grade": "A2" }, "geometry": { "type": "Point", "coordinates": [ 121.2117849, 25.0440747 ] } },
    { "type": "Feature", "properties": { "date": "3月8日", "time": "06~08", "addr": "桃園市平鎮區東勢里金龍路與金龍路190巷", "dist": "平鎮區", "grade": "A2" }, "geometry": { "type": "Point", "coordinates": [ 121.2368819, 24.898378 ] } },
    { "type": "Feature", "properties": { "date": "3月8日", "time": "06~08", "addr": "桃園市中壢區龍勇路與龍吉二街", "dist": "中壢區", "grade": "A2" }, "geometry": { "type": "Point", "coordinates": [ 121.236532, 24.9377187 ] } },
    { "type": "Feature", "properties": { "date": "3月8日", "time": "06~08", "addr": "桃園市平鎮區宋屋里延平路三段588號", "dist": "平鎮區", "grade": "A2" }, "geometry": { "type": "Point", "coordinates": [ 121.1971952, 24.9317568 ] } },
    { "type": "Feature", "properties": { "date": "3月8日", "time": "06~08", "addr": "桃園市桃園區信光里中正路慈文路", "dist": "桃園區", "grade": "A2" }, "geometry": { "type": "Point", "coordinates": [ 121.302868, 25.0075013 ] } },
    { "type": "Feature", "properties": { "date": "3月8日", "time": "06~08", "addr": "桃園市中壢區榮安一街與榮民路", "dist": "中壢區", "grade": "A2" }, "geometry": { "type": "Point", "coordinates": [ 121.2573171, 24.9637825 ] } },
    { "type": "Feature", "properties": { "date": "3月8日", "time": "06~08", "addr": "桃園市平鎮區金陵路與台66線路", "dist": "平鎮區", "grade": "A2" }, "geometry": { "type": "Point", "coordinates": [ 121.2238996, 24.9383595 ] } },
    { "type": "Feature", "properties": { "date": "3月9日", "time": "06~08", "addr": "桃園市桃園區龍壽街283號", "dist": "桃園區", "grade": "A2" }, "geometry": { "type": "Point", "coordinates": [ 121.26656, 24.988351 ] } },
    { "type": "Feature", "properties": { "date": "3月9日", "time": "06~08", "addr": "桃園市桃園區上海路2261號", "dist": "桃園區", "grade": "A2" }, "geometry": { "type": "Point", "coordinates": [ 121.2826521, 24.9911545 ] } },
    { "type": "Feature", "properties": { "date": "3月9日", "time": "06~08", "addr": "桃園市中壢區興仁里興仁路二段16巷興仁路二段27巷", "dist": "中壢區", "grade": "A2" }, "geometry": { "type": "Point", "coordinates": [ 121.2627446, 24.9679696 ] } },
    { "type": "Feature", "properties": { "date": "3月9日", "time": "06~08", "addr": "桃園市楊梅區萬大路152巷與萬大路116巷29弄", "dist": "楊梅區", "grade": "A2" }, "geometry": { "type": "Point", "coordinates": [ 121.1781145, 24.9092204 ] } },
    { "type": "Feature", "properties": { "date": "3月9日", "time": "06~08", "addr": "桃園市大溪區武嶺橋西端與大鶯路", "dist": "大溪區", "grade": "A2" }, "geometry": { "type": "Point", "coordinates": [ 121.2822495, 24.889878 ] } },
    { "type": "Feature", "properties": { "date": "3月9日", "time": "06~08", "addr": "桃園市八德區大昌里介壽路二段256號", "dist": "八德區", "grade": "A2" }, "geometry": { "type": "Point", "coordinates": [ 121.2976485, 24.9508611 ] } },
    { "type": "Feature", "properties": { "date": "3月10日", "time": "06~08", "addr": "桃園市中壢區中正路787巷", "dist": "中壢區", "grade": "A2" }, "geometry": { "type": "Point", "coordinates": [ 121.207382, 24.9614778 ] } },
    { "type": "Feature", "properties": { "date": "3月10日", "time": "06~08", "addr": "桃園市八德區大福里大福街129號", "dist": "八德區", "grade": "A2" }, "geometry": { "type": "Point", "coordinates": [ 121.3000271, 24.9721764 ] } },
    { "type": "Feature", "properties": { "date": "3月10日", "time": "06~08", "addr": "桃園市蘆竹區海山路203號", "dist": "蘆竹區", "grade": "A2" }, "geometry": { "type": "Point", "coordinates": [ 121.281398, 25.087005 ] } },
    { "type": "Feature", "properties": { "date": "3月10日", "time": "06~08", "addr": "桃園市八德區大忠街18號", "dist": "八德區", "grade": "A2" }, "geometry": { "type": "Point", "coordinates": [ 121.3003009, 24.9593967 ] } },
    { "type": "Feature", "properties": { "date": "3月10日", "time": "06~08", "addr": "桃園市楊梅區高榮里榮平路362號", "dist": "楊梅區", "grade": "A2" }, "geometry": { "type": "Point", "coordinates": [ 121.1692557, 24.9402981 ] } },
    { "type": "Feature", "properties": { "date": "3月10日", "time": "06~08", "addr": "桃園市大溪區台66線268公里處", "dist": "大溪區", "grade": "A2" }, "geometry": { "type": "Point", "coordinates": [ 121.2578123, 24.8984405 ] } },
    { "type": "Feature", "properties": { "date": "3月10日", "time": "06~08", "addr": "桃園市八德區福德一路與和平路路", "dist": "八德區", "grade": "A2" }, "geometry": { "type": "Point", "coordinates": [ 121.3246761, 24.9616707 ] } },
    { "type": "Feature", "properties": { "date": "3月10日", "time": "06~08", "addr": "桃園市龜山區光峰路217號", "dist": "龜山區", "grade": "A2" }, "geometry": { "type": "Point", "coordinates": [ 121.3425311, 25.0041524 ] } },
    { "type": "Feature", "properties": { "date": "3月10日", "time": "06~08", "addr": "桃園市蘆竹區文中路一段196號", "dist": "蘆竹區", "grade": "A2" }, "geometry": { "type": "Point", "coordinates": [ 121.2626496, 24.9904446 ] } },
    { "type": "Feature", "properties": { "date": "3月10日", "time": "06~08", "addr": "桃園市平鎮區平安里中豐路南勢一段36巷", "dist": "平鎮區", "grade": "A2" }, "geometry": { "type": "Point", "coordinates": [ 121.2088429, 24.9241226 ] } },
    { "type": "Feature", "properties": { "date": "3月10日", "time": "06~08", "addr": "桃園市八德區中華路699號", "dist": "八德區", "grade": "A2" }, "geometry": { "type": "Point", "coordinates": [ 121.2720627, 24.978825 ] } },
    { "type": "Feature", "properties": { "date": "3月10日", "time": "06~08", "addr": "桃園市平鎮區廣興里義民路與育達路", "dist": "平鎮區", "grade": "A2" }, "geometry": { "type": "Point", "coordinates": [ 121.2145318, 24.9519994 ] } },
    { "type": "Feature", "properties": { "date": "3月10日", "time": "06~08", "addr": "桃園市大溪區仁和路二段150號", "dist": "大溪區", "grade": "A2" }, "geometry": { "type": "Point", "coordinates": [ 121.2665633, 24.9033659 ] } },
    { "type": "Feature", "properties": { "date": "3月11日", "time": "06~08", "addr": "桃園市八德區大發里後庄街43巷興豐路", "dist": "八德區", "grade": "A2" }, "geometry": { "type": "Point", "coordinates": [ 121.3243544, 24.9524054 ] } },
    { "type": "Feature", "properties": { "date": "3月11日", "time": "06~08", "addr": "桃園市平鎮區金星里南平路215號", "dist": "平鎮區", "grade": "A2" }, "geometry": { "type": "Point", "coordinates": [ 121.2055111, 24.9203318 ] } },
    { "type": "Feature", "properties": { "date": "3月11日", "time": "06~08", "addr": "桃園市中壢區過嶺里民族路五段電研路", "dist": "中壢區", "grade": "A2" }, "geometry": { "type": "Point", "coordinates": [ 121.1667965, 24.9580273 ] } },
    { "type": "Feature", "properties": { "date": "3月11日", "time": "06~08", "addr": "桃園市八德區介壽路二段1233巷46號", "dist": "八德區", "grade": "A2" }, "geometry": { "type": "Point", "coordinates": [ 121.298766, 24.930316 ] } },
    { "type": "Feature", "properties": { "date": "3月11日", "time": "06~08", "addr": "桃園市桃園區吉安街溫州一路", "dist": "桃園區", "grade": "A2" }, "geometry": { "type": "Point", "coordinates": [ 121.2891212, 25.0028978 ] } },
    { "type": "Feature", "properties": { "date": "3月11日", "time": "06~08", "addr": "桃園市觀音區樹林里工業三路與經建一路", "dist": "觀音區", "grade": "A2" }, "geometry": { "type": "Point", "coordinates": [ 121.3009798, 24.9936281 ] } },
    { "type": "Feature", "properties": { "date": "3月11日", "time": "06~08", "addr": "桃園市桃園區延平路昆明路", "dist": "桃園區", "grade": "A2" }, "geometry": { "type": "Point", "coordinates": [ 121.3146565, 24.9835874 ] } },
    { "type": "Feature", "properties": { "date": "3月12日", "time": "06~08", "addr": "桃園市龍潭區龍安一街與武中路", "dist": "龍潭區", "grade": "A2" }, "geometry": { "type": "Point", "coordinates": [ 121.2298682, 24.877708 ] } },
    { "type": "Feature", "properties": { "date": "3月12日", "time": "06~08", "addr": "桃園市龜山區萬壽路二段16號", "dist": "龜山區", "grade": "A2" }, "geometry": { "type": "Point", "coordinates": [ 121.3633385, 25.002081 ] } },
    { "type": "Feature", "properties": { "date": "3月12日", "time": "06~08", "addr": "桃園市大溪區埔頂路一段474巷", "dist": "大溪區", "grade": "A2" }, "geometry": { "type": "Point", "coordinates": [ 121.2743828, 24.9021865 ] } },
    { "type": "Feature", "properties": { "date": "3月13日", "time": "06~08", "addr": "桃園市中壢區義民路明德南路", "dist": "中壢區", "grade": "A2" }, "geometry": { "type": "Point", "coordinates": [ 121.215787, 24.9532989 ] } },
    { "type": "Feature", "properties": { "date": "3月13日", "time": "06~08", "addr": "桃園市八德區龍友里新生路100巷", "dist": "八德區", "grade": "A2" }, "geometry": { "type": "Point", "coordinates": [ 121.2599498, 24.928926 ] } },
    { "type": "Feature", "properties": { "date": "3月13日", "time": "06~08", "addr": "桃園市平鎮區湧豐里中豐路山頂段68號", "dist": "平鎮區", "grade": "A2" }, "geometry": { "type": "Point", "coordinates": [ 121.2114446, 24.9022244 ] } },
    { "type": "Feature", "properties": { "date": "3月14日", "time": "06~08", "addr": "桃園市龜山區萬壽路一段383號", "dist": "龜山區", "grade": "A2" }, "geometry": { "type": "Point", "coordinates": [ 121.3995414, 25.0163494 ] } },
    { "type": "Feature", "properties": { "date": "3月14日", "time": "06~08", "addr": "桃園市八德區茄苳路725巷91號", "dist": "八德區", "grade": "A2" }, "geometry": { "type": "Point", "coordinates": [ 121.2835223, 24.9699834 ] } },
    { "type": "Feature", "properties": { "date": "3月14日", "time": "06~08", "addr": "桃園市桃園區南門里復興路323號", "dist": "桃園區", "grade": "A2" }, "geometry": { "type": "Point", "coordinates": [ 121.304945, 24.9890339 ] } },
    { "type": "Feature", "properties": { "date": "3月14日", "time": "06~08", "addr": "桃園市桃園區武陵里中正路1號", "dist": "桃園區", "grade": "A2" }, "geometry": { "type": "Point", "coordinates": [ 121.313308, 24.991894 ] } },
    { "type": "Feature", "properties": { "date": "3月14日", "time": "06~08", "addr": "桃園市平鎮區東勢里金龍路福龍路一段", "dist": "平鎮區", "grade": "A2" }, "geometry": { "type": "Point", "coordinates": [ 121.230481, 24.9012907 ] } },
    { "type": "Feature", "properties": { "date": "3月14日", "time": "06~08", "addr": "桃園市中壢區興和里中豐路一段312號", "dist": "中壢區", "grade": "A2" }, "geometry": { "type": "Point", "coordinates": [ 121.2177575, 24.9773132 ] } },
    { "type": "Feature", "properties": { "date": "3月14日", "time": "06~08", "addr": "桃園市中壢區幸福里環北路中福路", "dist": "中壢區", "grade": "A2" }, "geometry": { "type": "Point", "coordinates": [ 121.2289827, 24.9645673 ] } },
    { "type": "Feature", "properties": { "date": "3月14日", "time": "06~08", "addr": "桃園市蘆竹區南山北路一段1號", "dist": "蘆竹區", "grade": "A2" }, "geometry": { "type": "Point", "coordinates": [ 121.2820907, 25.0897937 ] } },
    { "type": "Feature", "properties": { "date": "3月14日", "time": "06~08", "addr": "桃園市中壢區忠義里中華路一段895號", "dist": "中壢區", "grade": "A2" }, "geometry": { "type": "Point", "coordinates": [ 121.244625, 24.9668669 ] } },
    { "type": "Feature", "properties": { "date": "3月14日", "time": "06~08", "addr": "桃園市八德區中山路豐田一路", "dist": "八德區", "grade": "A2" }, "geometry": { "type": "Point", "coordinates": [ 121.2845557, 24.9262754 ] } },
    { "type": "Feature", "properties": { "date": "3月14日", "time": "06~08", "addr": "桃園市八德區大成里建國路福國街", "dist": "八德區", "grade": "A2" }, "geometry": { "type": "Point", "coordinates": [ 121.2923848, 24.9549798 ] } },
    { "type": "Feature", "properties": { "date": "3月15日", "time": "06~08", "addr": "桃園市中壢區興和里新生路548巷", "dist": "中壢區", "grade": "A2" }, "geometry": { "type": "Point", "coordinates": [ 121.2239168, 24.9692302 ] } },
    { "type": "Feature", "properties": { "date": "3月15日", "time": "06~08", "addr": "桃園市龍潭區佳安里佳安西路建成路", "dist": "龍潭區", "grade": "A2" }, "geometry": { "type": "Point", "coordinates": [ 121.2403744, 24.8352544 ] } },
    { "type": "Feature", "properties": { "date": "3月15日", "time": "06~08", "addr": "桃園市平鎮區福龍路一段100號", "dist": "平鎮區", "grade": "A2" }, "geometry": { "type": "Point", "coordinates": [ 121.2282547, 24.8978178 ] } },
    { "type": "Feature", "properties": { "date": "3月15日", "time": "06~08", "addr": "桃園市龍潭區佳安里文化路1088號", "dist": "龍潭區", "grade": "A2" }, "geometry": { "type": "Point", "coordinates": [ 121.2511951, 24.8585057 ] } },
    { "type": "Feature", "properties": { "date": "3月15日", "time": "06~08", "addr": "桃園市楊梅區中山里環東路298巷環東路", "dist": "楊梅區", "grade": "A2" }, "geometry": { "type": "Point", "coordinates": [ 121.1575575, 24.907281 ] } },
    { "type": "Feature", "properties": { "date": "3月15日", "time": "06~08", "addr": "桃園市龜山區忠義路一段495號附近外側車道", "dist": "龜山區", "grade": "A2" }, "geometry": { "type": "Point", "coordinates": [ 121.3475195, 25.0122094 ] } },
    { "type": "Feature", "properties": { "date": "3月15日", "time": "06~08", "addr": "桃園市桃園區武陵里復興路民生路", "dist": "桃園區", "grade": "A2" }, "geometry": { "type": "Point", "coordinates": [ 121.3149726, 24.9910757 ] } },
    { "type": "Feature", "properties": { "date": "3月15日", "time": "06~08", "addr": "桃園市平鎮區平安里南平路230號", "dist": "平鎮區", "grade": "A2" }, "geometry": { "type": "Point", "coordinates": [ 121.205174, 24.9209351 ] } },
    { "type": "Feature", "properties": { "date": "3月15日", "time": "06~08", "addr": "桃園市大園區田心里35鄰44號", "dist": "大園區", "grade": "A2" }, "geometry": { "type": "Point", "coordinates": [ 121.1950611, 25.0612745 ] } },
    { "type": "Feature", "properties": { "date": "3月15日", "time": "06~08", "addr": "桃園市龜山區大同路331巷3弄", "dist": "龜山區", "grade": "A2" }, "geometry": { "type": "Point", "coordinates": [ 121.3599609, 24.9889027 ] } },
    { "type": "Feature", "properties": { "date": "3月16日", "time": "06~08", "addr": "桃園市平鎮區文化街182號", "dist": "平鎮區", "grade": "A2" }, "geometry": { "type": "Point", "coordinates": [ 121.2031458, 24.9526851 ] } },
    { "type": "Feature", "properties": { "date": "3月16日", "time": "06~08", "addr": "桃園市中壢區中山東路幸福街", "dist": "中壢區", "grade": "A2" }, "geometry": { "type": "Point", "coordinates": [ 121.2367106, 24.9546382 ] } },
    { "type": "Feature", "properties": { "date": "3月16日", "time": "06~08", "addr": "桃園市八德區大發里和平路1190巷電桿大仁幹32支15號", "dist": "八德區", "grade": "A2" }, "geometry": { "type": "Point", "coordinates": [ 121.3260547, 24.9640642 ] } },
    { "type": "Feature", "properties": { "date": "3月16日", "time": "06~08", "addr": "桃園市中壢區環北路363巷", "dist": "中壢區", "grade": "A2" }, "geometry": { "type": "Point", "coordinates": [ 121.2234362, 24.9660232 ] } },
    { "type": "Feature", "properties": { "date": "3月17日", "time": "06~08", "addr": "桃園市平鎮區新光路183號", "dist": "平鎮區", "grade": "A2" }, "geometry": { "type": "Point", "coordinates": [ 121.205392, 24.936364 ] } },
    { "type": "Feature", "properties": { "date": "3月17日", "time": "06~08", "addr": "桃園市楊梅區榮平路268巷11號", "dist": "楊梅區", "grade": "A2" }, "geometry": { "type": "Point", "coordinates": [ 121.1699012, 24.9423613 ] } },
    { "type": "Feature", "properties": { "date": "3月17日", "time": "06~08", "addr": "桃園市楊梅區瑞塘里中山北路二段351巷", "dist": "楊梅區", "grade": "A2" }, "geometry": { "type": "Point", "coordinates": [ 121.1764793, 24.9110466 ] } },
    { "type": "Feature", "properties": { "date": "3月17日", "time": "06~08", "addr": "桃園市中壢區慈光廿九村", "dist": "中壢區", "grade": "A2" }, "geometry": { "type": "Point", "coordinates": [ 121.2053963, 24.9721514 ] } },
    { "type": "Feature", "properties": { "date": "3月17日", "time": "06~08", "addr": "桃園市蘆竹區南青路八股路", "dist": "蘆竹區", "grade": "A2" }, "geometry": { "type": "Point", "coordinates": [ 121.2554214, 25.0501063 ] } },
    { "type": "Feature", "properties": { "date": "3月17日", "time": "06~08", "addr": "桃園市觀音區崙坪里忠愛路一段246號", "dist": "觀音區", "grade": "A2" }, "geometry": { "type": "Point", "coordinates": [ 121.1640002, 24.9955799 ] } },
    { "type": "Feature", "properties": { "date": "3月17日", "time": "06~08", "addr": "桃園市中壢區環西路21號", "dist": "中壢區", "grade": "A2" }, "geometry": { "type": "Point", "coordinates": [ 121.2065945, 24.9581415 ] } },
    { "type": "Feature", "properties": { "date": "3月17日", "time": "06~08", "addr": "桃園市中壢區中央東路25號", "dist": "中壢區", "grade": "A2" }, "geometry": { "type": "Point", "coordinates": [ 121.224622, 24.95746 ] } },
    { "type": "Feature", "properties": { "date": "3月17日", "time": "06~08", "addr": "桃園市中壢區龍岡路二段與英士三街", "dist": "中壢區", "grade": "A2" }, "geometry": { "type": "Point", "coordinates": [ 121.2298695, 24.9431301 ] } },
    { "type": "Feature", "properties": { "date": "3月17日", "time": "06~08", "addr": "桃園市觀音區大堀里新富路一段大湖路", "dist": "觀音區", "grade": "A2" }, "geometry": { "type": "Point", "coordinates": [ 121.1343109, 24.9918468 ] } },
    { "type": "Feature", "properties": { "date": "3月17日", "time": "06~08", "addr": "桃園市龜山區忠義路二段燈桿165380號", "dist": "龜山區", "grade": "A2" }, "geometry": { "type": "Point", "coordinates": [ 121.3590475, 25.0483688 ] } },
    { "type": "Feature", "properties": { "date": "3月17日", "time": "06~08", "addr": "桃園市平鎮區平鎮里南平路二段506之1號", "dist": "平鎮區", "grade": "A2" }, "geometry": { "type": "Point", "coordinates": [ 121.192057, 24.922414 ] } },
    { "type": "Feature", "properties": { "date": "3月18日", "time": "06~08", "addr": "桃園市大園區後厝里國際路二段6巷66弄17號", "dist": "大園區", "grade": "A2" }, "geometry": { "type": "Point", "coordinates": [ 121.211314, 25.0793939 ] } },
    { "type": "Feature", "properties": { "date": "3月18日", "time": "06~08", "addr": "桃園市中壢區民權路二段9巷38號", "dist": "中壢區", "grade": "A2" }, "geometry": { "type": "Point", "coordinates": [ 121.215867, 24.964923 ] } },
    { "type": "Feature", "properties": { "date": "3月18日", "time": "06~08", "addr": "桃園市龜山區民安街64巷33弄", "dist": "龜山區", "grade": "A2" }, "geometry": { "type": "Point", "coordinates": [ 121.3273506, 24.9896081 ] } },
    { "type": "Feature", "properties": { "date": "3月18日", "time": "06~08", "addr": "桃園市平鎮區延平路三段41號", "dist": "平鎮區", "grade": "A2" }, "geometry": { "type": "Point", "coordinates": [ 121.205525, 24.940828 ] } },
    { "type": "Feature", "properties": { "date": "3月18日", "time": "06~08", "addr": "桃園市中壢區龍昌里龍東路445巷", "dist": "中壢區", "grade": "A2" }, "geometry": { "type": "Point", "coordinates": [ 121.252868, 24.9347272 ] } },
    { "type": "Feature", "properties": { "date": "3月18日", "time": "06~08", "addr": "桃園市中壢區三光路與王子街", "dist": "中壢區", "grade": "A2" }, "geometry": { "type": "Point", "coordinates": [ 121.2126993, 24.9633786 ] } },
    { "type": "Feature", "properties": { "date": "3月19日", "time": "06~08", "addr": "桃園市大園區橫峰里橫南路203號", "dist": "大園區", "grade": "A2" }, "geometry": { "type": "Point", "coordinates": [ 121.2089229, 25.0573822 ] } },
    { "type": "Feature", "properties": { "date": "3月19日", "time": "06~08", "addr": "桃園市蘆竹區中正北路1576號", "dist": "蘆竹區", "grade": "A2" }, "geometry": { "type": "Point", "coordinates": [ 121.2757793, 25.049019 ] } },
    { "type": "Feature", "properties": { "date": "3月19日", "time": "06~08", "addr": "桃園市中壢區石頭里中美路延平路", "dist": "中壢區", "grade": "A2" }, "geometry": { "type": "Point", "coordinates": [ 121.2245335, 24.9591636 ] } },
    { "type": "Feature", "properties": { "date": "3月19日", "time": "06~08", "addr": "桃園市中壢區中正路與義民路", "dist": "中壢區", "grade": "A2" }, "geometry": { "type": "Point", "coordinates": [ 121.2058459, 24.9637363 ] } },
    { "type": "Feature", "properties": { "date": "3月21日", "time": "06~08", "addr": "桃園市八德區中華與龍祥街", "dist": "八德區", "grade": "A2" }, "geometry": { "type": "Point", "coordinates": [ 121.2912463, 24.9469059 ] } },
    { "type": "Feature", "properties": { "date": "3月21日", "time": "06~08", "addr": "桃園市龜山區興華三街27巷興華三街", "dist": "龜山區", "grade": "A2" }, "geometry": { "type": "Point", "coordinates": [ 121.3652671, 25.0534782 ] } },
    { "type": "Feature", "properties": { "date": "3月21日", "time": "06~08", "addr": "桃園市桃園區西湖里中山路育樂街", "dist": "桃園區", "grade": "A2" }, "geometry": { "type": "Point", "coordinates": [ 121.3042431, 24.9921329 ] } },
    { "type": "Feature", "properties": { "date": "3月21日", "time": "06~08", "addr": "桃園市龜山區萬壽路二段733巷", "dist": "龜山區", "grade": "A2" }, "geometry": { "type": "Point", "coordinates": [ 121.3443507, 24.9972469 ] } },
    { "type": "Feature", "properties": { "date": "3月21日", "time": "06~08", "addr": "桃園市桃園區春日路與復興路", "dist": "桃園區", "grade": "A2" }, "geometry": { "type": "Point", "coordinates": [ 121.3104049, 25.0107421 ] } },
    { "type": "Feature", "properties": { "date": "3月21日", "time": "06~08", "addr": "桃園市平鎮區宋屋里快速路三段賦梅路", "dist": "平鎮區", "grade": "A2" }, "geometry": { "type": "Point", "coordinates": [ 121.199597, 24.9314741 ] } },
    { "type": "Feature", "properties": { "date": "3月21日", "time": "06~08", "addr": "桃園市楊梅區東流里中山南路675號", "dist": "楊梅區", "grade": "A2" }, "geometry": { "type": "Point", "coordinates": [ 121.1255286, 24.9027155 ] } },
    { "type": "Feature", "properties": { "date": "3月21日", "time": "06~08", "addr": "桃園市龜山區壽山街與樂安街", "dist": "龜山區", "grade": "A2" }, "geometry": { "type": "Point", "coordinates": [ 121.3945987, 25.046129 ] } },
    { "type": "Feature", "properties": { "date": "3月22日", "time": "06~08", "addr": "桃園市蘆竹區上竹路上竹一街", "dist": "蘆竹區", "grade": "A2" }, "geometry": { "type": "Point", "coordinates": [ 121.2969674, 25.0784359 ] } },
    { "type": "Feature", "properties": { "date": "3月22日", "time": "06~08", "addr": "桃園市龜山區長壽路光峰路", "dist": "龜山區", "grade": "A2" }, "geometry": { "type": "Point", "coordinates": [ 121.3428099, 25.0016124 ] } },
    { "type": "Feature", "properties": { "date": "3月22日", "time": "06~08", "addr": "桃園市龍潭區中正里神龍路275號", "dist": "龍潭區", "grade": "A2" }, "geometry": { "type": "Point", "coordinates": [ 121.2142898, 24.8587452 ] } },
    { "type": "Feature", "properties": { "date": "3月22日", "time": "06~08", "addr": "桃園市龍潭區八德里梅龍路梅龍二街", "dist": "龍潭區", "grade": "A2" }, "geometry": { "type": "Point", "coordinates": [ 121.1974393, 24.8734869 ] } },
    { "type": "Feature", "properties": { "date": "3月22日", "time": "06~08", "addr": "桃園市桃園區民生里民生路福昌街", "dist": "桃園區", "grade": "A2" }, "geometry": { "type": "Point", "coordinates": [ 121.3129335, 24.9943709 ] } },
    { "type": "Feature", "properties": { "date": "3月22日", "time": "06~08", "addr": "桃園市楊梅區高上里幼獅路二段218巷", "dist": "楊梅區", "grade": "A2" }, "geometry": { "type": "Point", "coordinates": [ 121.1687529, 24.935009 ] } },
    { "type": "Feature", "properties": { "date": "3月22日", "time": "06~08", "addr": "桃園市蘆竹區南平街與洛陽街", "dist": "蘆竹區", "grade": "A2" }, "geometry": { "type": "Point", "coordinates": [ 121.2908356, 25.0457959 ] } },
    { "type": "Feature", "properties": { "date": "3月22日", "time": "06~08", "addr": "桃園市蘆竹區龍安街二段1128號", "dist": "蘆竹區", "grade": "A2" }, "geometry": { "type": "Point", "coordinates": [ 121.2544518, 25.0132634 ] } },
    { "type": "Feature", "properties": { "date": "3月22日", "time": "06~08", "addr": "桃園市中壢區三民路一段五興路", "dist": "中壢區", "grade": "A2" }, "geometry": { "type": "Point", "coordinates": [ 121.1964582, 24.9596775 ] } },
    { "type": "Feature", "properties": { "date": "3月22日", "time": "06~08", "addr": "桃園市龜山區忠義路2段118巷", "dist": "龜山區", "grade": "A2" }, "geometry": { "type": "Point", "coordinates": [ 121.3565157, 25.0427235 ] } },
    { "type": "Feature", "properties": { "date": "3月23日", "time": "06~08", "addr": "桃園市觀音區坑尾里文化路石橋段11號", "dist": "觀音區", "grade": "A2" }, "geometry": { "type": "Point", "coordinates": [ 121.09688, 25.0069929 ] } },
    { "type": "Feature", "properties": { "date": "3月23日", "time": "06~08", "addr": "桃園市桃園區長壽街9號", "dist": "桃園區", "grade": "A2" }, "geometry": { "type": "Point", "coordinates": [ 121.3124312, 24.9890285 ] } },
    { "type": "Feature", "properties": { "date": "3月23日", "time": "06~08", "addr": "桃園市桃園區豐林里永美街三民路三段", "dist": "桃園區", "grade": "A2" }, "geometry": { "type": "Point", "coordinates": [ 121.3075309, 24.9831576 ] } },
    { "type": "Feature", "properties": { "date": "3月23日", "time": "06~08", "addr": "桃園市蘆竹區南工路富國路三段", "dist": "蘆竹區", "grade": "A2" }, "geometry": { "type": "Point", "coordinates": [ 121.2685371, 25.0547332 ] } },
    { "type": "Feature", "properties": { "date": "3月23日", "time": "06~08", "addr": "桃園市桃園區龍祥街大慶街", "dist": "桃園區", "grade": "A2" }, "geometry": { "type": "Point", "coordinates": [ 121.2716551, 24.9801053 ] } },
    { "type": "Feature", "properties": { "date": "3月23日", "time": "06~08", "addr": "桃園市八德區重慶街299號", "dist": "八德區", "grade": "A2" }, "geometry": { "type": "Point", "coordinates": [ 121.3075443, 24.9528736 ] } },
    { "type": "Feature", "properties": { "date": "3月23日", "time": "06~08", "addr": "桃園市桃園區中正路1550號", "dist": "桃園區", "grade": "A2" }, "geometry": { "type": "Point", "coordinates": [ 121.2939015, 25.026443 ] } },
    { "type": "Feature", "properties": { "date": "3月23日", "time": "06~08", "addr": "桃園市平鎮區民族路221號", "dist": "平鎮區", "grade": "A2" }, "geometry": { "type": "Point", "coordinates": [ 121.2026494, 24.9569764 ] } },
    { "type": "Feature", "properties": { "date": "3月23日", "time": "06~08", "addr": "桃園市桃園區福林里介新街陽明五街", "dist": "桃園區", "grade": "A2" }, "geometry": { "type": "Point", "coordinates": [ 121.3061769, 24.9791999 ] } },
    { "type": "Feature", "properties": { "date": "3月23日", "time": "06~08", "addr": "桃園市中壢區過嶺里民族路六段松勤路", "dist": "中壢區", "grade": "A2" }, "geometry": { "type": "Point", "coordinates": [ 121.1638299, 24.9598599 ] } },
    { "type": "Feature", "properties": { "date": "3月23日", "time": "06~08", "addr": "桃園市中壢區水尾里新生路三段492巷", "dist": "中壢區", "grade": "A2" }, "geometry": { "type": "Point", "coordinates": [ 121.2202058, 24.9979015 ] } },
    { "type": "Feature", "properties": { "date": "3月23日", "time": "06~08", "addr": "桃園市桃園區介壽路109號", "dist": "桃園區", "grade": "A2" }, "geometry": { "type": "Point", "coordinates": [ 121.310306, 24.9837919 ] } },
    { "type": "Feature", "properties": { "date": "3月24日", "time": "06~08", "addr": "桃園市龜山區興邦路29號", "dist": "龜山區", "grade": "A2" }, "geometry": { "type": "Point", "coordinates": [ 121.3235987, 24.9845494 ] } },
    { "type": "Feature", "properties": { "date": "3月24日", "time": "06~08", "addr": "桃園市龍潭區龍新路三和段", "dist": "龍潭區", "grade": "A2" }, "geometry": { "type": "Point", "coordinates": [ 121.1735743, 24.8498283 ] } },
    { "type": "Feature", "properties": { "date": "3月24日", "time": "06~08", "addr": "桃園市龜山區明德路148巷", "dist": "龜山區", "grade": "A2" }, "geometry": { "type": "Point", "coordinates": [ 121.3425651, 24.9905802 ] } },
    { "type": "Feature", "properties": { "date": "3月24日", "time": "06~08", "addr": "桃園市桃園區中成里溫州一路吉安街", "dist": "桃園區", "grade": "A2" }, "geometry": { "type": "Point", "coordinates": [ 121.2891212, 25.0028978 ] } },
    { "type": "Feature", "properties": { "date": "3月24日", "time": "06~08", "addr": "桃園市楊梅區幼獅路一段獅二路", "dist": "楊梅區", "grade": "A2" }, "geometry": { "type": "Point", "coordinates": [ 121.1753975, 24.9260593 ] } },
    { "type": "Feature", "properties": { "date": "3月24日", "time": "06~08", "addr": "桃園市大園區埔心里23鄰211號", "dist": "大園區", "grade": "A2" }, "geometry": { "type": "Point", "coordinates": [ 121.219709, 25.0512526 ] } },
    { "type": "Feature", "properties": { "date": "3月24日", "time": "06~08", "addr": "桃園市桃園區慈文路慈華街", "dist": "桃園區", "grade": "A2" }, "geometry": { "type": "Point", "coordinates": [ 121.2986302, 25.0039988 ] } },
    { "type": "Feature", "properties": { "date": "3月24日", "time": "06~08", "addr": "桃園市大園區照鏡埤", "dist": "大園區", "grade": "A2" }, "geometry": { "type": "Point", "coordinates": [ 121.201787, 25.040436 ] } },
    { "type": "Feature", "properties": { "date": "3月24日", "time": "06~08", "addr": "桃園市大園區五權里五青路151巷", "dist": "大園區", "grade": "A2" }, "geometry": { "type": "Point", "coordinates": [ 121.2328041, 25.019948 ] } },
    { "type": "Feature", "properties": { "date": "3月24日", "time": "06~08", "addr": "桃園市中壢區日新路與協同街", "dist": "中壢區", "grade": "A2" }, "geometry": { "type": "Point", "coordinates": [ 121.2393656, 24.9546947 ] } },
    { "type": "Feature", "properties": { "date": "3月24日", "time": "06~08", "addr": "桃園市平鎮區平南里中豐路南勢二段天津街", "dist": "平鎮區", "grade": "A2" }, "geometry": { "type": "Point", "coordinates": [ 121.2084131, 24.9088483 ] } },
    { "type": "Feature", "properties": { "date": "3月25日", "time": "06~08", "addr": "桃園市龍潭區八德里梅龍路336號", "dist": "龍潭區", "grade": "A2" }, "geometry": { "type": "Point", "coordinates": [ 121.1949287, 24.8754179 ] } },
    { "type": "Feature", "properties": { "date": "3月25日", "time": "06~08", "addr": "桃園市桃園區東門里中山東路東國街", "dist": "桃園區", "grade": "A2" }, "geometry": { "type": "Point", "coordinates": [ 121.3144288, 24.9958612 ] } },
    { "type": "Feature", "properties": { "date": "3月25日", "time": "06~08", "addr": "桃園市桃園區成功里中央街111號", "dist": "桃園區", "grade": "A2" }, "geometry": { "type": "Point", "coordinates": [ 121.3164302, 24.9983697 ] } },
    { "type": "Feature", "properties": { "date": "3月25日", "time": "06~08", "addr": "桃園市桃園區富國路645巷28號", "dist": "桃園區", "grade": "A2" }, "geometry": { "type": "Point", "coordinates": [ 121.2819735, 25.0193126 ] } },
    { "type": "Feature", "properties": { "date": "3月26日", "time": "06~08", "addr": "桃園市蘆竹區南山路一段125號", "dist": "蘆竹區", "grade": "A2" }, "geometry": { "type": "Point", "coordinates": [ 121.289981, 25.0555968 ] } },
    { "type": "Feature", "properties": { "date": "3月26日", "time": "06~08", "addr": "桃園市新屋區清華里清華路463號", "dist": "新屋區", "grade": "A2" }, "geometry": { "type": "Point", "coordinates": [ 121.115439, 24.9696111 ] } },
    { "type": "Feature", "properties": { "date": "3月26日", "time": "06~08", "addr": "桃園市龜山區長壽路542巷26號", "dist": "龜山區", "grade": "A2" }, "geometry": { "type": "Point", "coordinates": [ 121.3282721, 24.9975756 ] } },
    { "type": "Feature", "properties": { "date": "3月26日", "time": "06~08", "addr": "桃園市八德區茄苳里寶豐街15巷", "dist": "八德區", "grade": "A2" },