{
    "type": "FeatureCollection",
    "crs": { "type": "name", "properties": { "name": "urn:ogc:def:crs:OGC:1.3:CRS84" } },
    "features": [
    { "type": "Feature", "properties": { "reason": "未依規定左轉", "name": "桃園市", "dist": "桃園區", "addr": "大林里大仁路大仁路40巷" }, "geometry": { "type": "Point", "coordinates": [ 121.323369, 24.972577 ] } },
    { "type": "Feature", "properties": { "reason": "未依規定左轉", "name": "桃園市", "dist": "桃園區", "addr": "國際路二段大興西路三段" }, "geometry": { "type": "Point", "coordinates": [ 121.286824, 25.00207 ] } },
    { "type": "Feature", "properties": { "reason": "未依規定左轉", "name": "桃園市", "dist": "桃園區", "addr": "中成里大興西路國際路" }, "geometry": { "type": "Point", "coordinates": [ 121.286961, 25.002133 ] } },
    { "type": "Feature", "properties": { "reason": "未依規定左轉", "name": "桃園市", "dist": "桃園區", "addr": "正光路大興西路三段" }, "geometry": { "type": "Point", "coordinates": [ 121.290899, 25.005488 ] } },
    { "type": "Feature", "properties": { "reason": "未依規定左轉", "name": "桃園市", "dist": "桃園區", "addr": "中埔六街同德六街" }, "geometry": { "type": "Point", "coordinates": [ 121.296967, 24.99341 ] } },
    { "type": "Feature", "properties": { "reason": "未依規定左轉", "name": "桃園市", "dist": "桃園區", "addr": "中正三街埔新路" }, "geometry": { "type": "Point", "coordinates": [ 121.296967, 24.99341 ] } },
    { "type": "Feature", "properties": { "reason": "未依規定左轉", "name": "桃園市", "dist": "桃園區", "addr": "慈文里慈光街慈雲街" }, "geometry": { "type": "Point", "coordinates": [ 121.299429, 25.006419 ] } },
    { "type": "Feature", "properties": { "reason": "未依規定左轉", "name": "桃園市", "dist": "桃園區", "addr": "自強里經國路天祥七街" }, "geometry": { "type": "Point", "coordinates": [ 121.302343, 25.024019 ] } },
    { "type": "Feature", "properties": { "reason": "未依規定左轉", "name": "桃園市", "dist": "桃園區", "addr": "春日里春日路1276號" }, "geometry": { "type": "Point", "coordinates": [ 121.306717, 25.024833 ] } },
    { "type": "Feature", "properties": { "reason": "未依規定左轉", "name": "桃園市", "dist": "桃園區", "addr": "三民路3段504號" }, "geometry": { "type": "Point", "coordinates": [ 121.30738, 24.983364 ] } },
    { "type": "Feature", "properties": { "reason": "未依規定左轉", "name": "桃園市", "dist": "桃園區", "addr": "春日路978號" }, "geometry": { "type": "Point", "coordinates": [ 121.308797, 25.017914 ] } },
    { "type": "Feature", "properties": { "reason": "未依規定左轉", "name": "桃園市", "dist": "桃園區", "addr": "建新街建新街402巷" }, "geometry": { "type": "Point", "coordinates": [ 121.308876, 24.974929 ] } },
    { "type": "Feature", "properties": { "reason": "未依規定左轉", "name": "桃園市", "dist": "桃園區", "addr": "中華路民族路" }, "geometry": { "type": "Point", "coordinates": [ 121.309763, 24.990568 ] } },
    { "type": "Feature", "properties": { "reason": "未依規定左轉", "name": "桃園市", "dist": "桃園區", "addr": "民生里民生路141號" }, "geometry": { "type": "Point", "coordinates": [ 121.313131, 24.993453 ] } },
    { "type": "Feature", "properties": { "reason": "未依規定左轉", "name": "桃園市", "dist": "桃園區", "addr": "雲林里延平路昆明路" }, "geometry": { "type": "Point", "coordinates": [ 121.314685, 24.983608 ] } },
    { "type": "Feature", "properties": { "reason": "未依規定左轉", "name": "桃園市", "dist": "桃園區", "addr": "建國路建國路61巷建國路建國路61巷" }, "geometry": { "type": "Point", "coordinates": [ 121.315366, 24.985771 ] } },
    { "type": "Feature", "properties": { "reason": "未依規定左轉", "name": "桃園市", "dist": "桃園區", "addr": "建國路建明街" }, "geometry": { "type": "Point", "coordinates": [ 121.316821, 24.985902 ] } },
    { "type": "Feature", "properties": { "reason": "未依規定左轉", "name": "桃園市", "dist": "桃園區", "addr": "桃鶯路桃鶯路87巷" }, "geometry": { "type": "Point", "coordinates": [ 121.318114, 24.985339 ] } },
    { "type": "Feature", "properties": { "reason": "未依規定左轉", "name": "桃園市", "dist": "桃園區", "addr": "三元里大有路272號" }, "geometry": { "type": "Point", "coordinates": [ 121.32058, 25.00812 ] } },
    { "type": "Feature", "properties": { "reason": "未依規定左轉", "name": "桃園市", "dist": "桃園區", "addr": "樹仁二街榮華街64巷" }, "geometry": { "type": "Point", "coordinates": [ 121.320774, 24.977921 ] } },
    { "type": "Feature", "properties": { "reason": "未依規定左轉", "name": "桃園市", "dist": "桃園區", "addr": "萬壽路三段山鶯路" }, "geometry": { "type": "Point", "coordinates": [ 121.322652, 24.991917 ] } },
    { "type": "Feature", "properties": { "reason": "未依規定左轉", "name": "桃園市", "dist": "桃園區", "addr": "龍安街龍鳳三街" }, "geometry": { "type": "Point", "coordinates": [ 121.281056, 24.988049 ] } },
    { "type": "Feature", "properties": { "reason": "未依規定左轉", "name": "桃園市", "dist": "桃園區", "addr": "中正路680號" }, "geometry": { "type": "Point", "coordinates": [ 121.290672, 25.050113 ] } },
    { "type": "Feature", "properties": { "reason": "未依規定左轉", "name": "桃園市", "dist": "桃園區", "addr": "永安路永安北路" }, "geometry": { "type": "Point", "coordinates": [ 121.291097, 25.00761 ] } },
    { "type": "Feature", "properties": { "reason": "未依規定左轉", "name": "桃園市", "dist": "桃園區", "addr": "寶慶路南平路" }, "geometry": { "type": "Point", "coordinates": [ 121.291686, 25.01531 ] } },
    { "type": "Feature", "properties": { "reason": "未依規定左轉", "name": "桃園市", "dist": "桃園區", "addr": "大興西路二段寶慶路" }, "geometry": { "type": "Point", "coordinates": [ 121.296967, 24.99341 ] } },
    { "type": "Feature", "properties": { "reason": "未依規定左轉", "name": "桃園市", "dist": "桃園區", "addr": "中山路1496巷" }, "geometry": { "type": "Point", "coordinates": [ 121.297522, 24.991339 ] } },
    { "type": "Feature", "properties": { "reason": "未依規定左轉", "name": "桃園市", "dist": "桃園區", "addr": "玉山街233巷235巷" }, "geometry": { "type": "Point", "coordinates": [ 121.299719, 24.983991 ] } },
    { "type": "Feature", "properties": { "reason": "未依規定左轉", "name": "桃園市", "dist": "桃園區", "addr": "汴洲里經國路875號" }, "geometry": { "type": "Point", "coordinates": [ 121.300295, 25.031405 ] } },
    { "type": "Feature", "properties": { "reason": "未依規定左轉", "name": "桃園市", "dist": "桃園區", "addr": "玉山里大同西路秀山路" }, "geometry": { "type": "Point", "coordinates": [ 121.301601, 24.988449 ] } },
    { "type": "Feature", "properties": { "reason": "未依規定左轉", "name": "桃園市", "dist": "桃園區", "addr": "光興里縣府路3號" }, "geometry": { "type": "Point", "coordinates": [ 121.301904, 24.993062 ] } },
    { "type": "Feature", "properties": { "reason": "未依規定左轉", "name": "桃園市", "dist": "桃園區", "addr": "介壽路德壽街" }, "geometry": { "type": "Point", "coordinates": [ 121.303379, 24.980569 ] } },
    { "type": "Feature", "properties": { "reason": "未依規定左轉", "name": "桃園市", "dist": "桃園區", "addr": "西門里忠二路永光街" }, "geometry": { "type": "Point", "coordinates": [ 121.303943, 24.996572 ] } },
    { "type": "Feature", "properties": { "reason": "未依規定左轉", "name": "桃園市", "dist": "桃園區", "addr": "西湖里三民路三段182號" }, "geometry": { "type": "Point", "coordinates": [ 121.305887, 24.993171 ] } },
    { "type": "Feature", "properties": { "reason": "未依規定左轉", "name": "桃園市", "dist": "桃園區", "addr": "中正路北埔路" }, "geometry": { "type": "Point", "coordinates": [ 121.306003, 25.002725 ] } },
    { "type": "Feature", "properties": { "reason": "未依規定左轉", "name": "桃園市", "dist": "桃園區", "addr": "中正路中正二街" }, "geometry": { "type": "Point", "coordinates": [ 121.307114, 25.000878 ] } },
    { "type": "Feature", "properties": { "reason": "未依規定左轉", "name": "桃園市", "dist": "桃園區", "addr": "三民介壽路" }, "geometry": { "type": "Point", "coordinates": [ 121.307663, 24.982005 ] } },
    { "type": "Feature", "properties": { "reason": "未依規定左轉", "name": "桃園市", "dist": "桃園區", "addr": "三民路民生路" }, "geometry": { "type": "Point", "coordinates": [ 121.310627, 24.999857 ] } },
    { "type": "Feature", "properties": { "reason": "未依規定左轉", "name": "桃園市", "dist": "桃園區", "addr": "武陵里民生路10號" }, "geometry": { "type": "Point", "coordinates": [ 121.314835, 24.990286 ] } },
    { "type": "Feature", "properties": { "reason": "未依規定左轉", "name": "桃園市", "dist": "桃園區", "addr": "春日鎮安路" }, "geometry": { "type": "Point", "coordinates": [ 121.31731, 24.992449 ] } },
    { "type": "Feature", "properties": { "reason": "未依規定左轉", "name": "桃園市", "dist": "桃園區", "addr": "桃鶯路大原路" }, "geometry": { "type": "Point", "coordinates": [ 121.31973, 24.97437 ] } },
    { "type": "Feature", "properties": { "reason": "未依規定左轉", "name": "桃園市", "dist": "桃園區", "addr": "桃鶯路大原路" }, "geometry": { "type": "Point", "coordinates": [ 121.320549, 24.979804 ] } },
    { "type": "Feature", "properties": { "reason": "未依規定左轉", "name": "桃園市", "dist": "桃園區", "addr": "桃鶯路419號" }, "geometry": { "type": "Point", "coordinates": [ 121.320723, 24.97962 ] } },
    { "type": "Feature", "properties": { "reason": "未依規定左轉", "name": "桃園市", "dist": "桃園區", "addr": "永安路永安路1188巷" }, "geometry": { "type": "Point", "coordinates": [ 121.280841, 25.010361 ] } },
    { "type": "Feature", "properties": { "reason": "未依規定左轉", "name": "桃園市", "dist": "桃園區", "addr": "安慶街104號" }, "geometry": { "type": "Point", "coordinates": [ 121.292216, 25.018286 ] } },
    { "type": "Feature", "properties": { "reason": "未依規定左轉", "name": "桃園市", "dist": "桃園區", "addr": "國際路一段國際二路" }, "geometry": { "type": "Point", "coordinates": [ 121.292815, 24.962438 ] } },
    { "type": "Feature", "properties": { "reason": "未依規定左轉", "name": "桃園市", "dist": "桃園區", "addr": "富國路莊敬路二段" }, "geometry": { "type": "Point", "coordinates": [ 121.296967, 24.99341 ] } },
    { "type": "Feature", "properties": { "reason": "未依規定左轉", "name": "桃園市", "dist": "桃園區", "addr": "文中二路正光二街" }, "geometry": { "type": "Point", "coordinates": [ 121.296967, 24.99341 ] } },
    { "type": "Feature", "properties": { "reason": "未依規定左轉", "name": "桃園市", "dist": "桃園區", "addr": "大興西路二大興西路二段80巷" }, "geometry": { "type": "Point", "coordinates": [ 121.297645, 25.012881 ] } },
    { "type": "Feature", "properties": { "reason": "未依規定左轉", "name": "桃園市", "dist": "桃園區", "addr": "中正路大興西路" }, "geometry": { "type": "Point", "coordinates": [ 121.300369, 25.012414 ] } },
    { "type": "Feature", "properties": { "reason": "未依規定左轉", "name": "桃園市", "dist": "桃園區", "addr": "中正路慈文路" }, "geometry": { "type": "Point", "coordinates": [ 121.301585, 25.009431 ] } },
    { "type": "Feature", "properties": { "reason": "未依規定左轉", "name": "桃園市", "dist": "桃園區", "addr": "光興里忠二路文康街" }, "geometry": { "type": "Point", "coordinates": [ 121.303562, 24.996558 ] } },
    { "type": "Feature", "properties": { "reason": "未依規定左轉", "name": "桃園市", "dist": "桃園區", "addr": "玉山里復興路秀山路" }, "geometry": { "type": "Point", "coordinates": [ 121.303922, 24.990016 ] } },
    { "type": "Feature", "properties": { "reason": "未依規定左轉", "name": "桃園市", "dist": "桃園區", "addr": "力行路埔新路" }, "geometry": { "type": "Point", "coordinates": [ 121.304853, 25.003119 ] } },
    { "type": "Feature", "properties": { "reason": "未依規定左轉", "name": "桃園市", "dist": "桃園區", "addr": "三民路三段建國路" }, "geometry": { "type": "Point", "coordinates": [ 121.307183, 24.9849 ] } },
    { "type": "Feature", "properties": { "reason": "未依規定左轉", "name": "桃園市", "dist": "桃園區", "addr": "民生路民光東路" }, "geometry": { "type": "Point", "coordinates": [ 121.308849, 25.005248 ] } },
    { "type": "Feature", "properties": { "reason": "未依規定左轉", "name": "桃園市", "dist": "桃園區", "addr": "武陵里大同路民族路" }, "geometry": { "type": "Point", "coordinates": [ 121.310398, 24.988938 ] } },
    { "type": "Feature", "properties": { "reason": "未依規定左轉", "name": "桃園市", "dist": "桃園區", "addr": "中華路民權路" }, "geometry": { "type": "Point", "coordinates": [ 121.311375, 24.991079 ] } },
    { "type": "Feature", "properties": { "reason": "未依規定左轉", "name": "桃園市", "dist": "桃園區", "addr": "福安里建國路昆明路" }, "geometry": { "type": "Point", "coordinates": [ 121.311725, 24.985408 ] } },
    { "type": "Feature", "properties": { "reason": "未依規定左轉", "name": "桃園市", "dist": "桃園區", "addr": "中正路復興路" }, "geometry": { "type": "Point", "coordinates": [ 121.313011, 24.990519 ] } },
    { "type": "Feature", "properties": { "reason": "未依規定左轉", "name": "桃園市", "dist": "桃園區", "addr": "寶山里寶山街民有三街" }, "geometry": { "type": "Point", "coordinates": [ 121.314357, 25.011651 ] } },
    { "type": "Feature", "properties": { "reason": "未依規定左轉", "name": "桃園市", "dist": "桃園區", "addr": "青溪里春日路鎮四街" }, "geometry": { "type": "Point", "coordinates": [ 121.314384, 25.000135 ] } },
    { "type": "Feature", "properties": { "reason": "未依規定左轉", "name": "桃園市", "dist": "桃園區", "addr": "大業路一段242號" }, "geometry": { "type": "Point", "coordinates": [ 121.315793, 25.008038 ] } },
    { "type": "Feature", "properties": { "reason": "未依規定左轉", "name": "桃園市", "dist": "桃園區", "addr": "三民自強路" }, "geometry": { "type": "Point", "coordinates": [ 121.317074, 25.001297 ] } },
    { "type": "Feature", "properties": { "reason": "未依規定左轉", "name": "桃園市", "dist": "桃園區", "addr": "環中東路41號" }, "geometry": { "type": "Point", "coordinates": [ 121.260057, 24.966656 ] } },
    { "type": "Feature", "properties": { "reason": "未依規定左轉", "name": "桃園市", "dist": "桃園區", "addr": "國強一街252號" }, "geometry": { "type": "Point", "coordinates": [ 121.280704, 24.991495 ] } },
    { "type": "Feature", "properties": { "reason": "未依規定左轉", "name": "桃園市", "dist": "桃園區", "addr": "永安路1146號" }, "geometry": { "type": "Point", "coordinates": [ 121.282224, 25.010245 ] } },
    { "type": "Feature", "properties": { "reason": "未依規定左轉", "name": "桃園市", "dist": "桃園區", "addr": "上海路國強一街" }, "geometry": { "type": "Point", "coordinates": [ 121.282296, 24.991911 ] } },
    { "type": "Feature", "properties": { "reason": "未依規定左轉", "name": "桃園市", "dist": "桃園區", "addr": "中聖里中山路889號" }, "geometry": { "type": "Point", "coordinates": [ 121.284779, 24.987969 ] } },
    { "type": "Feature", "properties": { "reason": "未依規定左轉", "name": "桃園市", "dist": "桃園區", "addr": "國鼎二街國聖二街" }, "geometry": { "type": "Point", "coordinates": [ 121.287422, 24.985928 ] } },
    { "type": "Feature", "properties": { "reason": "未依規定左轉", "name": "桃園市", "dist": "桃園區", "addr": "國際路一段國際路一段485巷" }, "geometry": { "type": "Point", "coordinates": [ 121.289119, 24.972893 ] } },
    { "type": "Feature", "properties": { "reason": "未依規定左轉", "name": "桃園市", "dist": "桃園區", "addr": "永安路405號" }, "geometry": { "type": "Point", "coordinates": [ 121.298178, 25.001555 ] } },
    { "type": "Feature", "properties": { "reason": "未依規定左轉", "name": "桃園市", "dist": "桃園區", "addr": "同安街578號" }, "geometry": { "type": "Point", "coordinates": [ 121.29883, 25.022429 ] } },
    { "type": "Feature", "properties": { "reason": "未依規定左轉", "name": "桃園市", "dist": "桃園區", "addr": "同德六街新埔六街" }, "geometry": { "type": "Point", "coordinates": [ 121.301194, 25.017116 ] } },
    { "type": "Feature", "properties": { "reason": "未依規定左轉", "name": "桃園市", "dist": "桃園區", "addr": "中正路同德二街" }, "geometry": { "type": "Point", "coordinates": [ 121.301246, 25.010653 ] } },
    { "type": "Feature", "properties": { "reason": "未依規定左轉", "name": "桃園市", "dist": "桃園區", "addr": "中正路835號" }, "geometry": { "type": "Point", "coordinates": [ 121.301635, 25.00944 ] } },
    { "type": "Feature", "properties": { "reason": "未依規定左轉", "name": "桃園市", "dist": "桃園區", "addr": "西門里三民路三段莒光街" }, "geometry": { "type": "Point", "coordinates": [ 121.305748, 24.995457 ] } },
    { "type": "Feature", "properties": { "reason": "未依規定左轉", "name": "桃園市", "dist": "桃園區", "addr": "中山路三民路" }, "geometry": { "type": "Point", "coordinates": [ 121.306024, 24.992531 ] } },
    { "type": "Feature", "properties": { "reason": "未依規定左轉", "name": "桃園市", "dist": "桃園區", "addr": "民族路博愛路" }, "geometry": { "type": "Point", "coordinates": [ 121.308186, 24.993973 ] } },
    { "type": "Feature", "properties": { "reason": "未依規定左轉", "name": "桃園市", "dist": "桃園區", "addr": "大業路2段208號" }, "geometry": { "type": "Point", "coordinates": [ 121.31056, 25.020301 ] } },
    { "type": "Feature", "properties": { "reason": "未依規定左轉", "name": "桃園市", "dist": "桃園區", "addr": "復興路190號" }, "geometry": { "type": "Point", "coordinates": [ 121.31129, 24.990112 ] } },
    { "type": "Feature", "properties": { "reason": "未依規定左轉", "name": "桃園市", "dist": "桃園區", "addr": "建新街昆明路" }, "geometry": { "type": "Point", "coordinates": [ 121.312758, 24.984197 ] } },
    { "type": "Feature", "properties": { "reason": "未依規定左轉", "name": "桃園市", "dist": "桃園區", "addr": "青溪里三民路二段青溪公園" }, "geometry": { "type": "Point", "coordinates": [ 121.316601, 25.001185 ] } },
    { "type": "Feature", "properties": { "reason": "未依規定左轉", "name": "桃園市", "dist": "桃園區", "addr": "大豐路樹林九街" }, "geometry": { "type": "Point", "coordinates": [ 121.316763, 24.980452 ] } },
    { "type": "Feature", "properties": { "reason": "未依規定左轉", "name": "桃園市", "dist": "桃園區", "addr": "萬壽路3段99巷" }, "geometry": { "type": "Point", "coordinates": [ 121.321511, 24.990658 ] } },
    { "type": "Feature", "properties": { "reason": "未依規定左轉", "name": "桃園市", "dist": "桃園區", "addr": "三民路一段壽山路" }, "geometry": { "type": "Point", "coordinates": [ 121.324068, 24.995383 ] } },
    { "type": "Feature", "properties": { "reason": "未依規定左轉", "name": "桃園市", "dist": "桃園區", "addr": "中山路1496巷" }, "geometry": { "type": "Point", "coordinates": [ 121.268273, 24.976591 ] } },
    { "type": "Feature", "properties": { "reason": "未依規定左轉", "name": "桃園市", "dist": "桃園區", "addr": "龍祥街龍泉三街" }, "geometry": { "type": "Point", "coordinates": [ 121.271209, 24.981601 ] } },
    { "type": "Feature", "properties": { "reason": "未依規定左轉", "name": "桃園市", "dist": "桃園區", "addr": "富國路645巷" }, "geometry": { "type": "Point", "coordinates": [ 121.282757, 25.029277 ] } },
    { "type": "Feature", "properties": { "reason": "未依規定左轉", "name": "桃園市", "dist": "桃園區", "addr": "富國路409巷" }, "geometry": { "type": "Point", "coordinates": [ 121.285307, 25.014801 ] } },
    { "type": "Feature", "properties": { "reason": "未依規定左轉", "name": "桃園市", "dist": "桃園區", "addr": "德華街272號" }, "geometry": { "type": "Point", "coordinates": [ 121.285661, 24.99499 ] } },
    { "type": "Feature", "properties": { "reason": "未依規定左轉", "name": "桃園市", "dist": "桃園區", "addr": "大興西路三段正光路" }, "geometry": { "type": "Point", "coordinates": [ 121.290814, 25.005375 ] } },
    { "type": "Feature", "properties": { "reason": "未依規定左轉", "name": "桃園市", "dist": "桃園區", "addr": "中平里中山路中平路" }, "geometry": { "type": "Point", "coordinates": [ 121.291816, 24.990971 ] } },
    { "type": "Feature", "properties": { "reason": "未依規定左轉", "name": "桃園市", "dist": "桃園區", "addr": "中山路延壽街" }, "geometry": { "type": "Point", "coordinates": [ 121.293788, 24.991095 ] } },
    { "type": "Feature", "properties": { "reason": "未依規定左轉", "name": "桃園市", "dist": "桃園區", "addr": "中埔里大興西路二段蓮埔街" }, "geometry": { "type": "Point", "coordinates": [ 121.294129, 25.008467 ] } },
    { "type": "Feature", "properties": { "reason": "未依規定左轉", "name": "桃園市", "dist": "桃園區", "addr": "中山路正光路" }, "geometry": { "type": "Point", "coordinates": [ 121.294883, 24.990997 ] } },
    { "type": "Feature", "properties": { "reason": "未依規定左轉", "name": "桃園市", "dist": "桃園區", "addr": "中山路守法路" }, "geometry": { "type": "Point", "coordinates": [ 121.296873, 24.991113 ] } },
    { "type": "Feature", "properties": { "reason": "未依規定左轉", "name": "桃園市", "dist": "桃園區", "addr": "中正路1071號" }, "geometry": { "type": "Point", "coordinates": [ 121.298111, 25.016378 ] } },
    { "type": "Feature", "properties": { "reason": "未依規定左轉", "name": "桃園市", "dist": "桃園區", "addr": "忠二路忠二路159巷" }, "geometry": { "type": "Point", "coordinates": [ 121.299443, 24.996278 ] } },
    { "type": "Feature", "properties": { "reason": "未依規定左轉", "name": "桃園市", "dist": "桃園區", "addr": "永安路力行路" }, "geometry": { "type": "Point", "coordinates": [ 121.299656, 25.000271 ] } },
    { "type": "Feature", "properties": { "reason": "未依規定左轉", "name": "桃園市", "dist": "桃園區", "addr": "德壽街德壽二街" }, "geometry": { "type": "Point", "coordinates": [ 121.300027, 24.978595 ] } },
    { "type": "Feature", "properties": { "reason": "未依規定左轉", "name": "桃園市", "dist": "桃園區", "addr": "新埔六街60號" }, "geometry": { "type": "Point", "coordinates": [ 121.302631, 25.014745 ] } },
    { "type": "Feature", "properties": { "reason": "未依規定左轉", "name": "桃園市", "dist": "桃園區", "addr": "大同西路44巷" }, "geometry": { "type": "Point", "coordinates": [ 121.302879, 24.98836 ] } },
    { "type": "Feature", "properties": { "reason": "未依規定左轉", "name": "桃園市", "dist": "桃園區", "addr": "力行路70號" }, "geometry": { "type": "Point", "coordinates": [ 121.303342, 25.002445 ] } },
    { "type": "Feature", "properties": { "reason": "未依規定左轉", "name": "桃園市", "dist": "桃園區", "addr": "永安里北埔路北埔路216巷" }, "geometry": { "type": "Point", "coordinates": [ 121.303503, 25.001418 ] } },
    { "type": "Feature", "properties": { "reason": "未依規定左轉", "name": "桃園市", "dist": "桃園區", "addr": "三民路三段廣明路橋往建國路" }, "geometry": { "type": "Point", "coordinates": [ 121.307183, 24.986724 ] } },
    { "type": "Feature", "properties": { "reason": "未依規定左轉", "name": "桃園市", "dist": "桃園區", "addr": "長沙街楊明三街" }, "geometry": { "type": "Point", "coordinates": [ 121.308098, 24.980837 ] } },
    { "type": "Feature", "properties": { "reason": "未依規定左轉", "name": "桃園市", "dist": "桃園區", "addr": "大同路民族路" }, "geometry": { "type": "Point", "coordinates": [ 121.310344, 24.988921 ] } },
    { "type": "Feature", "properties": { "reason": "未依規定左轉", "name": "桃園市", "dist": "桃園區", "addr": "建新街吉多街" }, "geometry": { "type": "Point", "coordinates": [ 121.310961, 24.98005 ] } },
    { "type": "Feature", "properties": { "reason": "未依規定左轉", "name": "桃園市", "dist": "桃園區", "addr": "大同路民權路" }, "geometry": { "type": "Point", "coordinates": [ 121.312001, 24.989438 ] } },
    { "type": "Feature", "properties": { "reason": "未依規定左轉", "name": "桃園市", "dist": "桃園區", "addr": "寶山里大興路民有三街" }, "geometry": { "type": "Point", "coordinates": [ 121.31279, 25.015907 ] } },
    { "type": "Feature", "properties": { "reason": "未依規定左轉", "name": "桃園市", "dist": "桃園區", "addr": "福林里樹仁三街魚池旁巷" }, "geometry": { "type": "Point", "coordinates": [ 121.313786, 24.974245 ] } },
    { "type": "Feature", "properties": { "reason": "未依規定左轉", "name": "桃園市", "dist": "桃園區", "addr": "延平路樹仁三街" }, "geometry": { "type": "Point", "coordinates": [ 121.314772, 24.974076 ] } },
    { "type": "Feature", "properties": { "reason": "未依規定左轉", "name": "桃園市", "dist": "桃園區", "addr": "春日路鎮安街" }, "geometry": { "type": "Point", "coordinates": [ 121.31731, 24.992449 ] } },
    { "type": "Feature", "properties": { "reason": "未依規定左轉", "name": "桃園市", "dist": "桃園區", "addr": "建國里桃鶯路127號" }, "geometry": { "type": "Point", "coordinates": [ 121.318057, 24.98673 ] } },
    { "type": "Feature", "properties": { "reason": "未依規定左轉", "name": "桃園市", "dist": "桃園區", "addr": "桃鶯路大明街" }, "geometry": { "type": "Point", "coordinates": [ 121.319766, 24.980626 ] } },
    { "type": "Feature", "properties": { "reason": "未依規定左轉", "name": "桃園市", "dist": "桃園區", "addr": "成功里自強路中山東路" }, "geometry": { "type": "Point", "coordinates": [ 121.319908, 24.997183 ] } },
    { "type": "Feature", "properties": { "reason": "未依規定左轉", "name": "桃園市", "dist": "桃園區", "addr": "成功路三段115巷83弄92號" }, "geometry": { "type": "Point", "coordinates": [ 121.32209, 25.001542 ] } },
    { "type": "Feature", "properties": { "reason": "未依規定左轉", "name": "桃園市", "dist": "桃園區", "addr": "大林里大誠路182號" }, "geometry": { "type": "Point", "coordinates": [ 121.322148, 24.983121 ] } },
    { "type": "Feature", "properties": { "reason": "未依規定左轉", "name": "桃園市", "dist": "桃園區", "addr": "三民路中山路" }, "geometry": { "type": "Point", "coordinates": [ 121.324689, 24.993873 ] } },
    { "type": "Feature", "properties": { "reason": "未依規定左轉", "name": "桃園市", "dist": "桃園區", "addr": "龍壽街213巷" }, "geometry": { "type": "Point", "coordinates": [ 121.267789, 24.986299 ] } },
    { "type": "Feature", "properties": { "reason": "未依規定左轉", "name": "桃園市", "dist": "桃園區", "addr": "中山路1288巷裕和街" }, "geometry": { "type": "Point", "coordinates": [ 121.2743, 24.981721 ] } },
    { "type": "Feature", "properties": { "reason": "未依規定左轉", "name": "桃園市", "dist": "桃園區", "addr": "文中路國際路二段" }, "geometry": { "type": "Point", "coordinates": [ 121.287933, 24.995911 ] } },
    { "type": "Feature", "properties": { "reason": "未依規定左轉", "name": "桃園市", "dist": "桃園區", "addr": "中山里中山路811號" }, "geometry": { "type": "Point", "coordinates": [ 121.289065, 24.989947 ] } },
    { "type": "Feature", "properties": { "reason": "未依規定左轉", "name": "桃園市", "dist": "桃園區", "addr": "中山里中州街國際路一段1124巷23弄" }, "geometry": { "type": "Point", "coordinates": [ 121.2905, 24.988062 ] } },
    { "type": "Feature", "properties": { "reason": "未依規定左轉", "name": "桃園市", "dist": "桃園區", "addr": "中正路莊敬路一段路" }, "geometry": { "type": "Point", "coordinates": [ 121.295187, 25.023447 ] } },
    { "type": "Feature", "properties": { "reason": "未依規定左轉", "name": "桃園市", "dist": "桃園區", "addr": "正光路廈門街" }, "geometry": { "type": "Point", "coordinates": [ 121.295189, 24.994382 ] } },
    { "type": "Feature", "properties": { "reason": "未依規定左轉", "name": "桃園市", "dist": "桃園區", "addr": "大連二街義光街" }, "geometry": { "type": "Point", "coordinates": [ 121.296967, 24.99341 ] } },
    { "type": "Feature", "properties": { "reason": "未依規定左轉", "name": "桃園市", "dist": "桃園區", "addr": "中埔一街同德五街" }, "geometry": { "type": "Point", "coordinates": [ 121.297153, 25.01418 ] } },
    { "type": "Feature", "properties": { "reason": "未依規定左轉", "name": "桃園市", "dist": "桃園區", "addr": "中寧里大興西路二段大興西路二段80巷" }, "geometry": { "type": "Point", "coordinates": [ 121.298407, 25.011493 ] } },
    { "type": "Feature", "properties": { "reason": "未依規定左轉", "name": "桃園市", "dist": "桃園區", "addr": "中正路1066號" }, "geometry": { "type": "Point", "coordinates": [ 121.299508, 25.014102 ] } },
    { "type": "Feature", "properties": { "reason": "未依規定左轉", "name": "桃園市", "dist": "桃園區", "addr": "慈光街慈德街" }, "geometry": { "type": "Point", "coordinates": [ 121.300228, 25.00769 ] } },
    { "type": "Feature", "properties": { "reason": "未依規定左轉", "name": "桃園市", "dist": "桃園區", "addr": "泰山里復興路454號" }, "geometry": { "type": "Point", "coordinates": [ 121.301873, 24.991338 ] } },
    { "type": "Feature", "properties": { "reason": "未依規定左轉", "name": "桃園市", "dist": "桃園區", "addr": "西湖里中山路育樂街" }, "geometry": { "type": "Point", "coordinates": [ 121.304277, 24.992124 ] } },
    { "type": "Feature", "properties": { "reason": "未依規定左轉", "name": "桃園市", "dist": "桃園區", "addr": "春日路幸福路" }, "geometry": { "type": "Point", "coordinates": [ 121.304497, 25.029409 ] } },
    { "type": "Feature", "properties": { "reason": "未依規定左轉", "name": "桃園市", "dist": "桃園區", "addr": "汴洲里庫西街62號" }, "geometry": { "type": "Point", "coordinates": [ 121.305631, 25.023088 ] } },
    { "type": "Feature", "properties": { "reason": "未依規定左轉", "name": "桃園市", "dist": "桃園區", "addr": "春日路鹽庫西街" }, "geometry": { "type": "Point", "coordinates": [ 121.307036, 25.022774 ] } },
    { "type": "Feature", "properties": { "reason": "未依規定左轉", "name": "桃園市", "dist": "桃園區", "addr": "民生路735巷130號" }, "geometry": { "type": "Point", "coordinates": [ 121.307739, 25.015884 ] } },
    { "type": "Feature", "properties": { "reason": "未依規定左轉", "name": "桃園市", "dist": "桃園區", "addr": "建國路保羅街" }, "geometry": { "type": "Point", "coordinates": [ 121.308371, 24.985117 ] } },
    { "type": "Feature", "properties": { "reason": "未依規定左轉", "name": "桃園市", "dist": "桃園區", "addr": "建國路129號" }, "geometry": { "type": "Point", "coordinates": [ 121.311196, 24.98527 ] } },
    { "type": "Feature", "properties": { "reason": "未依規定左轉", "name": "桃園市", "dist": "桃園區", "addr": "大同路30號" }, "geometry": { "type": "Point", "coordinates": [ 121.313682, 24.990282 ] } },
    { "type": "Feature", "properties": { "reason": "未依規定左轉", "name": "桃園市", "dist": "桃園區", "addr": "延平路建國路" }, "geometry": { "type": "Point", "coordinates": [ 121.314388, 24.985619 ] } },
    { "type": "Feature", "properties": { "reason": "未依規定左轉", "name": "桃園市", "dist": "桃園區", "addr": "桃鶯路1961號" }, "geometry": { "type": "Point", "coordinates": [ 121.319089, 24.982074 ] } },
    { "type": "Feature", "properties": { "reason": "未依規定左轉", "name": "桃園市", "dist": "桃園區", "addr": "忠義里三元街66號" }, "geometry": { "type": "Point", "coordinates": [ 121.319339, 25.003192 ] } },
    { "type": "Feature", "properties": { "reason": "未依規定左轉", "name": "桃園市", "dist": "桃園區", "addr": "三民里三民路一段75號" }, "geometry": { "type": "Point", "coordinates": [ 121.320076, 24.999047 ] } },
    { "type": "Feature", "properties": { "reason": "未依規定左轉", "name": "桃園市", "dist": "桃園區", "addr": "興仁路二段興仁路二段463巷" }, "geometry": { "type": "Point", "coordinates": [ 121.264161, 24.96099 ] } },
    { "type": "Feature", "properties": { "reason": "未依規定左轉", "name": "桃園市", "dist": "桃園區", "addr": "富國路962巷136號" }, "geometry": { "type": "Point", "coordinates": [ 121.278728, 25.029456 ] } },
    { "type": "Feature", "properties": { "reason": "未依規定左轉", "name": "桃園市", "dist": "桃園區", "addr": "永安路永安路895巷" }, "geometry": { "type": "Point", "coordinates": [ 121.287496, 25.009191 ] } },
    { "type": "Feature", "properties": { "reason": "未依規定左轉", "name": "桃園市", "dist": "桃園區", "addr": "中埔里永安路永安路868巷" }, "geometry": { "type": "Point", "coordinates": [ 121.291884, 25.007316 ] } },
    { "type": "Feature", "properties": { "reason": "未依規定左轉", "name": "桃園市", "dist": "桃園區", "addr": "中正路莊敬路" }, "geometry": { "type": "Point", "coordinates": [ 121.295056, 25.023422 ] } },
    { "type": "Feature", "properties": { "reason": "未依規定左轉", "name": "桃園市", "dist": "桃園區", "addr": "正光路法治路" }, "geometry": { "type": "Point", "coordinates": [ 121.295097, 24.992773 ] } },
    { "type": "Feature", "properties": { "reason": "未依規定左轉", "name": "桃園市", "dist": "桃園區", "addr": "明德里中寧街中寧街50巷" }, "geometry": { "type": "Point", "coordinates": [ 121.296726, 25.018513 ] } },
    { "type": "Feature", "properties": { "reason": "未依規定左轉", "name": "桃園市", "dist": "桃園區", "addr": "莊敬路一段181巷" }, "geometry": { "type": "Point", "coordinates": [ 121.300038, 25.025286 ] } },
    { "type": "Feature", "properties": { "reason": "未依規定左轉", "name": "桃園市", "dist": "桃園區", "addr": "玉山街75號" }, "geometry": { "type": "Point", "coordinates": [ 121.30061, 24.989263 ] } },
    { "type": "Feature", "properties": { "reason": "未依規定左轉", "name": "桃園市", "dist": "桃園區", "addr": "三民路三段莒光街" }, "geometry": { "type": "Point", "coordinates": [ 121.305901, 24.995503 ] } },
    { "type": "Feature", "properties": { "reason": "未依規定左轉", "name": "桃園市", "dist": "桃園區", "addr": "南門里復興路306號" }, "geometry": { "type": "Point", "coordinates": [ 121.306623, 24.989188 ] } },
    { "type": "Feature", "properties": { "reason": "未依規定左轉", "name": "桃園市", "dist": "桃園區", "addr": "三民路橋上機車道往建國路方向" }, "geometry": { "type": "Point", "coordinates": [ 121.307127, 24.98758 ] } },
    { "type": "Feature", "properties": { "reason": "未依規定左轉", "name": "桃園市", "dist": "桃園區", "addr": "南華街博愛路" }, "geometry": { "type": "Point", "coordinates": [ 121.307188, 24.993436 ] } },
    { "type": "Feature", "properties": { "reason": "未依規定左轉", "name": "桃園市", "dist": "桃園區", "addr": "大同路南華街" }, "geometry": { "type": "Point", "coordinates": [ 121.309142, 24.988533 ] } },
    { "type": "Feature", "properties": { "reason": "未依規定左轉", "name": "桃園市", "dist": "桃園區", "addr": "健行路鹽務路" }, "geometry": { "type": "Point", "coordinates": [ 121.312095, 25.022588 ] } },
    { "type": "Feature", "properties": { "reason": "未依規定左轉", "name": "桃園市", "dist": "桃園區", "addr": "成功路二段東國街" }, "geometry": { "type": "Point", "coordinates": [ 121.315356, 24.993628 ] } },
    { "type": "Feature", "properties": { "reason": "未依規定左轉", "name": "桃園市", "dist": "桃園區", "addr": "三元街三民路" }, "geometry": { "type": "Point", "coordinates": [ 121.317091, 25.001356 ] } },
    { "type": "Feature", "properties": { "reason": "未依規定左轉", "name": "桃園市", "dist": "桃園區", "addr": "寶山街寶山街58巷" }, "geometry": { "type": "Point", "coordinates": [ 121.317356, 25.013147 ] } },
    { "type": "Feature", "properties": { "reason": "未依規定左轉", "name": "桃園市", "dist": "桃園區", "addr": "雲林里桃鶯路96號" }, "geometry": { "type": "Point", "coordinates": [ 121.317962, 24.985169 ] } },
    { "type": "Feature", "properties": { "reason": "未依規定左轉", "name": "桃園市", "dist": "桃園區", "addr": "成功路三段大有路" }, "geometry": { "type": "Point", "coordinates": [ 121.325211, 25.003768 ] } },
    { "type": "Feature", "properties": { "reason": "未依規定左轉", "name": "桃園市", "dist": "桃園區", "addr": "成功路三段往龜山區" }, "geometry": { "type": "Point", "coordinates": [ 121.325963, 25.016585 ] } },
    { "type": "Feature", "properties": { "reason": "未依規定左轉", "name": "桃園市", "dist": "桃園區", "addr": "龍門街9號" }, "geometry": { "type": "Point", "coordinates": [ 121.263216, 24.977556 ] } },
    { "type": "Feature", "properties": { "reason": "未依規定左轉", "name": "桃園市", "dist": "桃園區", "addr": "中山路龍安街" }, "geometry": { "type": "Point", "coordinates": [ 121.28163, 24.98656 ] } },
    { "type": "Feature", "properties": { "reason": "未依規定左轉", "name": "桃園市", "dist": "桃園區", "addr": "中山路愛買" }, "geometry": { "type": "Point", "coordinates": [ 121.283824, 24.987507 ] } },
    { "type": "Feature", "properties": { "reason": "未依規定左轉", "name": "桃園市", "dist": "桃園區", "addr": "中德里國際路一段" }, "geometry": { "type": "Point", "coordinates": [ 121.289117, 24.972835 ] } },
    { "type": "Feature", "properties": { "reason": "未依規定左轉", "name": "桃園市", "dist": "桃園區", "addr": "中山路泰昌三街" }, "geometry": { "type": "Point", "coordinates": [ 121.290517, 24.985277 ] } },
    { "type": "Feature", "properties": { "reason": "未依規定左轉", "name": "桃園市", "dist": "桃園區", "addr": "壽星街仁愛路" }, "geometry": { "type": "Point", "coordinates": [ 121.29281, 24.994179 ] } },
    { "type": "Feature", "properties": { "reason": "未依規定左轉", "name": "桃園市", "dist": "桃園區", "addr": "中山路658巷82弄1號" }, "geometry": { "type": "Point", "coordinates": [ 121.293022, 24.988804 ] } },
    { "type": "Feature", "properties": { "reason": "未依規定左轉", "name": "桃園市", "dist": "桃園區", "addr": "國際一路國際二路" }, "geometry": { "type": "Point", "coordinates": [ 121.293311, 24.962361 ] } },
    { "type": "Feature", "properties": { "reason": "未依規定左轉", "name": "桃園市", "dist": "桃園區", "addr": "宏昌六街宏昌六街61巷" }, "geometry": { "type": "Point", "coordinates": [ 121.298059, 24.988137 ] } },
    { "type": "Feature", "properties": { "reason": "未依規定左轉", "name": "桃園市", "dist": "桃園區", "addr": "中山路4871號" }, "geometry": { "type": "Point", "coordinates": [ 121.298482, 24.991492 ] } },
    { "type": "Feature", "properties": { "reason": "未依規定左轉", "name": "桃園市", "dist": "桃園區", "addr": "大興西路一段新埔六街" }, "geometry": { "type": "Point", "coordinates": [ 121.302959, 25.013584 ] } },
    { "type": "Feature", "properties": { "reason": "未依規定左轉", "name": "桃園市", "dist": "桃園區", "addr": "南門里復興路育樂街" }, "geometry": { "type": "Point", "coordinates": [ 121.303643, 24.990366 ] } },
    { "type": "Feature", "properties": { "reason": "未依規定左轉", "name": "桃園市", "dist": "桃園區", "addr": "信光里信光路48號" }, "geometry": { "type": "Point", "coordinates": [ 121.306957, 25.006096 ] } },
    { "type": "Feature", "properties": { "reason": "未依規定左轉", "name": "桃園市", "dist": "桃園區", "addr": "介壽路288號" }, "geometry": { "type": "Point", "coordinates": [ 121.307238, 24.981871 ] } },
    { "type": "Feature", "properties": { "reason": "未依規定左轉", "name": "桃園市", "dist": "桃園區", "addr": "介壽路建國路" }, "geometry": { "type": "Point", "coordinates": [ 121.310555, 24.98526 ] } },
    { "type": "Feature", "properties": { "reason": "未依規定左轉", "name": "桃園市", "dist": "桃園區", "addr": "大興里大業路一段段422號" }, "geometry": { "type": "Point", "coordinates": [ 121.311748, 25.014783 ] } },
    { "type": "Feature", "properties": { "reason": "未依規定左轉", "name": "桃園市", "dist": "桃園區", "addr": "延平路金門二街" }, "geometry": { "type": "Point", "coordinates": [ 121.314806, 24.98155 ] } },
    { "type": "Feature", "properties": { "reason": "未依規定左轉", "name": "桃園市", "dist": "桃園區", "addr": "武陵里復興路民生路" }, "geometry": { "type": "Point", "coordinates": [ 121.314999, 24.991059 ] } },
    { "type": "Feature", "properties": { "reason": "未依規定左轉", "name": "桃園市", "dist": "桃園區", "addr": "復興路安東街" }, "geometry": { "type": "Point", "coordinates": [ 121.316434, 24.990976 ] } },
    { "type": "Feature", "properties": { "reason": "未依規定左轉", "name": "桃園市", "dist": "桃園區", "addr": "復興路44號" }, "geometry": { "type": "Point", "coordinates": [ 121.31747, 24.991096 ] } },
    { "type": "Feature", "properties": { "reason": "未依規定左轉", "name": "桃園市", "dist": "桃園區", "addr": "昆明路金門二街" }, "geometry": { "type": "Point", "coordinates": [ 121.317493, 24.983808 ] } },
    { "type": "Feature", "properties": { "reason": "未依規定左轉", "name": "桃園市", "dist": "桃園區", "addr": "中埔六街175號" }, "geometry": { "type": "Point", "coordinates": [ 121.294772, 25.018965 ] } },
    { "type": "Feature", "properties": { "reason": "未依規定左轉", "name": "桃園市", "dist": "桃園區", "addr": "三民路三段150號" }, "geometry": { "type": "Point", "coordinates": [ 121.305791, 24.994667 ] } },
    { "type": "Feature", "properties": { "reason": "未依規定左轉", "name": "桃園市", "dist": "桃園區", "addr": "中平里中州街571號" }, "geometry": { "type": "Point", "coordinates": [ 121.293542, 24.988567 ] } },
    { "type": "Feature", "properties": { "reason": "未依規定左轉", "name": "桃園市", "dist": "中壢區", "addr": "永清街356號" }, "geometry": { "type": "Point", "coordinates": [ 121.226408, 24.978944 ] } },
    { "type": "Feature", "properties": { "reason": "未依規定左轉", "name": "桃園市", "dist": "中壢區", "addr": "振興里環中東路二段7291號" }, "geometry": { "type": "Point", "coordinates": [ 121.228243, 24.943345 ] } },
    { "type": "Feature", "properties": { "reason": "未依規定左轉", "name": "桃園市", "dist": "中壢區", "addr": "廣州路大安街" }, "geometry": { "type": "Point", "coordinates": [ 121.229944, 24.950653 ] } },
    { "type": "Feature", "properties": { "reason": "未依規定左轉", "name": "桃園市", "dist": "中壢區", "addr": "廈門街潮州街" }, "geometry": { "type": "Point", "coordinates": [ 121.232468, 24.951784 ] } },
    { "type": "Feature", "properties": { "reason": "未依規定左轉", "name": "桃園市", "dist": "中壢區", "addr": "福州路85號" }, "geometry": { "type": "Point", "coordinates": [ 121.233447, 24.95203 ] } },
    { "type": "Feature", "properties": { "reason": "未依規定左轉", "name": "桃園市", "dist": "中壢區", "addr": "龍岡路三段140號" }, "geometry": { "type": "Point", "coordinates": [ 121.233584, 24.935924 ] } },
    { "type": "Feature", "properties": { "reason": "未依規定左轉", "name": "桃園市", "dist": "中壢區", "addr": "龍岡路龍仁路" }, "geometry": { "type": "Point", "coordinates": [ 121.23387, 24.935611 ] } },
    { "type": "Feature", "properties": { "reason": "未依規定左轉", "name": "桃園市", "dist": "中壢區", "addr": "中園路南園二路" }, "geometry": { "type": "Point", "coordinates": [ 121.236066, 24.971676 ] } },
    { "type": "Feature", "properties": { "reason": "未依規定左轉", "name": "桃園市", "dist": "中壢區", "addr": "新中北路34巷" }, "geometry": { "type": "Point", "coordinates": [ 121.236311, 24.95626 ] } },
    { "type": "Feature", "properties": { "reason": "未依規定左轉", "name": "桃園市", "dist": "中壢區", "addr": "龍岡路三段440巷" }, "geometry": { "type": "Point", "coordinates": [ 121.237393, 24.931044 ] } },
    { "type": "Feature", "properties": { "reason": "未依規定左轉", "name": "桃園市", "dist": "中壢區", "addr": "日新路力行北街日新路力行北街" }, "geometry": { "type": "Point", "coordinates": [ 121.239366, 24.954695 ] } },
    { "type": "Feature", "properties": { "reason": "未依規定左轉", "name": "桃園市", "dist": "中壢區", "addr": "中北路160號" }, "geometry": { "type": "Point", "coordinates": [ 121.239563, 24.956882 ] } },
    { "type": "Feature", "properties": { "reason": "未依規定左轉", "name": "桃園市", "dist": "中壢區", "addr": "龍慈路596號" }, "geometry": { "type": "Point", "coordinates": [ 121.240155, 24.937386 ] } },
    { "type": "Feature", "properties": { "reason": "未依規定左轉", "name": "桃園市", "dist": "中壢區", "addr": "後興路一段龍興路" }, "geometry": { "type": "Point", "coordinates": [ 121.242462, 24.940807 ] } },
    { "type": "Feature", "properties": { "reason": "未依規定左轉", "name": "桃園市", "dist": "中壢區", "addr": "後寮一路128號" }, "geometry": { "type": "Point", "coordinates": [ 121.245317, 24.941135 ] } },
    { "type": "Feature", "properties": { "reason": "未依規定左轉", "name": "桃園市", "dist": "中壢區", "addr": "環中東路708巷" }, "geometry": { "type": "Point", "coordinates": [ 121.245456, 24.955167 ] } },
    { "type": "Feature", "properties": { "reason": "未依規定左轉", "name": "桃園市", "dist": "中壢區", "addr": "新中北路507號" }, "geometry": { "type": "Point", "coordinates": [ 121.245928, 24.957344 ] } },
    { "type": "Feature", "properties": { "reason": "未依規定左轉", "name": "桃園市", "dist": "中壢區", "addr": "新中北路490巷" }, "geometry": { "type": "Point", "coordinates": [ 121.247008, 24.95713 ] } },
    { "type": "Feature", "properties": { "reason": "未依規定左轉", "name": "桃園市", "dist": "中壢區", "addr": "合圳北路二段160巷" }, "geometry": { "type": "Point", "coordinates": [ 121.247724, 24.999915 ] } },
    { "type": "Feature", "properties": { "reason": "未依規定左轉", "name": "桃園市", "dist": "中壢區", "addr": "吉林北路2號" }, "geometry": { "type": "Point", "coordinates": [ 121.249524, 24.987741 ] } },
    { "type": "Feature", "properties": { "reason": "未依規定左轉", "name": "桃園市", "dist": "中壢區", "addr": "自立里榮安一街460號" }, "geometry": { "type": "Point", "coordinates": [ 121.253524, 24.965361 ] } },
    { "type": "Feature", "properties": { "reason": "未依規定左轉", "name": "桃園市", "dist": "中壢區", "addr": "中華路一段619巷9弄" }, "geometry": { "type": "Point", "coordinates": [ 121.254399, 24.971169 ] } },
    { "type": "Feature", "properties": { "reason": "未依規定左轉", "name": "桃園市", "dist": "中壢區", "addr": "興仁路一段興仁路二段" }, "geometry": { "type": "Point", "coordinates": [ 121.26236, 24.968522 ] } },
    { "type": "Feature", "properties": { "reason": "未依規定左轉", "name": "桃園市", "dist": "中壢區", "addr": "中正路3段85號" }, "geometry": { "type": "Point", "coordinates": [ 121.186846, 24.984633 ] } },
    { "type": "Feature", "properties": { "reason": "未依規定左轉", "name": "桃園市", "dist": "中壢區", "addr": "三民里中正路1262號" }, "geometry": { "type": "Point", "coordinates": [ 121.201686, 24.970753 ] } },
    { "type": "Feature", "properties": { "reason": "未依規定左轉", "name": "桃園市", "dist": "中壢區", "addr": "高鐵南路二段領航北路一段" }, "geometry": { "type": "Point", "coordinates": [ 121.202702, 25.000766 ] } },
    { "type": "Feature", "properties": { "reason": "未依規定左轉", "name": "桃園市", "dist": "中壢區", "addr": "中園路福州二街" }, "geometry": { "type": "Point", "coordinates": [ 121.205396, 24.972151 ] } },
    { "type": "Feature", "properties": { "reason": "未依規定左轉", "name": "桃園市", "dist": "中壢區", "addr": "中美路一段42號" }, "geometry": { "type": "Point", "coordinates": [ 121.223336, 24.959651 ] } },
    { "type": "Feature", "properties": { "reason": "未依規定左轉", "name": "桃園市", "dist": "中壢區", "addr": "水尾里新生路南園二路" }, "geometry": { "type": "Point", "coordinates": [ 121.223802, 24.971544 ] } },
    { "type": "Feature", "properties": { "reason": "未依規定左轉", "name": "桃園市", "dist": "中壢區", "addr": "中山路元化路" }, "geometry": { "type": "Point", "coordinates": [ 121.226556, 24.955138 ] } },
    { "type": "Feature", "properties": { "reason": "未依規定左轉", "name": "桃園市", "dist": "中壢區", "addr": "健行路力行街" }, "geometry": { "type": "Point", "coordinates": [ 121.227795, 24.94833 ] } },
    { "type": "Feature", "properties": { "reason": "未依規定左轉", "name": "桃園市", "dist": "中壢區", "addr": "環北路中福路" }, "geometry": { "type": "Point", "coordinates": [ 121.228983, 24.964567 ] } },
    { "type": "Feature", "properties": { "reason": "未依規定左轉", "name": "桃園市", "dist": "中壢區", "addr": "龍岡路二段87號" }, "geometry": { "type": "Point", "coordinates": [ 121.229238, 24.945888 ] } },
    { "type": "Feature", "properties": { "reason": "未依規定左轉", "name": "桃園市", "dist": "中壢區", "addr": "新興北街36號" }, "geometry": { "type": "Point", "coordinates": [ 121.230676, 24.954825 ] } },
    { "type": "Feature", "properties": { "reason": "未依規定左轉", "name": "桃園市", "dist": "中壢區", "addr": "合浦街珠江街" }, "geometry": { "type": "Point", "coordinates": [ 121.231364, 24.948375 ] } },
    { "type": "Feature", "properties": { "reason": "未依規定左轉", "name": "桃園市", "dist": "中壢區", "addr": "中園路二段309號" }, "geometry": { "type": "Point", "coordinates": [ 121.232162, 24.995938 ] } },
    { "type": "Feature", "properties": { "reason": "未依規定左轉", "name": "桃園市", "dist": "中壢區", "addr": "中山東路1段195號" }, "geometry": { "type": "Point", "coordinates": [ 121.23322, 24.956967 ] } },
    { "type": "Feature", "properties": { "reason": "未依規定左轉", "name": "桃園市", "dist": "中壢區", "addr": "中園路2段306巷" }, "geometry": { "type": "Point", "coordinates": [ 121.233238, 24.995995 ] } },
    { "type": "Feature", "properties": { "reason": "未依規定左轉", "name": "桃園市", "dist": "中壢區", "addr": "環中東路昆明街" }, "geometry": { "type": "Point", "coordinates": [ 121.23339, 24.946925 ] } },
    { "type": "Feature", "properties": { "reason": "未依規定左轉", "name": "桃園市", "dist": "中壢區", "addr": "永福里南園二路86號" }, "geometry": { "type": "Point", "coordinates": [ 121.233457, 24.971809 ] } },
    { "type": "Feature", "properties": { "reason": "未依規定左轉", "name": "桃園市", "dist": "中壢區", "addr": "忠福里中福路二段西園路" }, "geometry": { "type": "Point", "coordinates": [ 121.234565, 24.980237 ] } },
    { "type": "Feature", "properties": { "reason": "未依規定左轉", "name": "桃園市", "dist": "中壢區", "addr": "中華路二段128號" }, "geometry": { "type": "Point", "coordinates": [ 121.240512, 24.966364 ] } },
    { "type": "Feature", "properties": { "reason": "未依規定左轉", "name": "桃園市", "dist": "中壢區", "addr": "普仁里環中東路振興街" }, "geometry": { "type": "Point", "coordinates": [ 121.241145, 24.952042 ] } },
    { "type": "Feature", "properties": { "reason": "未依規定左轉", "name": "桃園市", "dist": "中壢區", "addr": "普忠里普忠路普忠路211巷" }, "geometry": { "type": "Point", "coordinates": [ 121.246026, 24.960918 ] } },
    { "type": "Feature", "properties": { "reason": "未依規定左轉", "name": "桃園市", "dist": "中壢區", "addr": "內定二街439號" }, "geometry": { "type": "Point", "coordinates": [ 121.254817, 24.99038 ] } },
    { "type": "Feature", "properties": { "reason": "未依規定左轉", "name": "桃園市", "dist": "中壢區", "addr": "中華路一段遠東路" }, "geometry": { "type": "Point", "coordinates": [ 121.262398, 24.974223 ] } },
    { "type": "Feature", "properties": { "reason": "未依規定左轉", "name": "桃園市", "dist": "中壢區", "addr": "興仁路二段106號" }, "geometry": { "type": "Point", "coordinates": [ 121.262774, 24.966593 ] } },
    { "type": "Feature", "properties": { "reason": "未依規定左轉", "name": "桃園市", "dist": "中壢區", "addr": "興仁路二段興仁路二段67巷" }, "geometry": { "type": "Point", "coordinates": [ 121.2646, 24.967226 ] } },
    { "type": "Feature", "properties": { "reason": "未依規定左轉", "name": "桃園市", "dist": "中壢區", "addr": "民族路中央路" }, "geometry": { "type": "Point", "coordinates": [ 121.190071, 24.960421 ] } },
    { "type": "Feature", "properties": { "reason": "未依規定左轉", "name": "桃園市", "dist": "中壢區", "addr": "五權里民族路二段98號" }, "geometry": { "type": "Point", "coordinates": [ 121.205897, 24.95782 ] } },
    { "type": "Feature", "properties": { "reason": "未依規定左轉", "name": "桃園市", "dist": "中壢區", "addr": "中豐北路東芝路" }, "geometry": { "type": "Point", "coordinates": [ 121.211804, 24.986476 ] } },
    { "type": "Feature", "properties": { "reason": "未依規定左轉", "name": "桃園市", "dist": "中壢區", "addr": "永光里環西路2段300巷" }, "geometry": { "type": "Point", "coordinates": [ 121.21318, 24.964855 ] } },
    { "type": "Feature", "properties": { "reason": "未依規定左轉", "name": "桃園市", "dist": "中壢區", "addr": "高鐵北路青埔路" }, "geometry": { "type": "Point", "coordinates": [ 121.215065, 25.012174 ] } },
    { "type": "Feature", "properties": { "reason": "未依規定左轉", "name": "桃園市", "dist": "中壢區", "addr": "興國里中山路361巷" }, "geometry": { "type": "Point", "coordinates": [ 121.218445, 24.9564 ] } },
    { "type": "Feature", "properties": { "reason": "未依規定左轉", "name": "桃園市", "dist": "中壢區", "addr": "新生路南園二路" }, "geometry": { "type": "Point", "coordinates": [ 121.223717, 24.971537 ] } },
    { "type": "Feature", "properties": { "reason": "未依規定左轉", "name": "桃園市", "dist": "中壢區", "addr": "元化路271巷慈惠三街" }, "geometry": { "type": "Point", "coordinates": [ 121.225416, 24.962077 ] } },
    { "type": "Feature", "properties": { "reason": "未依規定左轉", "name": "桃園市", "dist": "中壢區", "addr": "領航南路致善路" }, "geometry": { "type": "Point", "coordinates": [ 121.227155, 24.973765 ] } },
    { "type": "Feature", "properties": { "reason": "未依規定左轉", "name": "桃園市", "dist": "中壢區", "addr": "永清街大圳路" }, "geometry": { "type": "Point", "coordinates": [ 121.228272, 24.987439 ] } },
    { "type": "Feature", "properties": { "reason": "未依規定左轉", "name": "桃園市", "dist": "中壢區", "addr": "環北路583號" }, "geometry": { "type": "Point", "coordinates": [ 121.228434, 24.965022 ] } },
    { "type": "Feature", "properties": { "reason": "未依規定左轉", "name": "桃園市", "dist": "中壢區", "addr": "中央里長江路長江一街" }, "geometry": { "type": "Point", "coordinates": [ 121.228493, 24.956985 ] } },
    { "type": "Feature", "properties": { "reason": "未依規定左轉", "name": "桃園市", "dist": "中壢區", "addr": "龍岡龍陵路" }, "geometry": { "type": "Point", "coordinates": [ 121.231075, 24.939197 ] } },
    { "type": "Feature", "properties": { "reason": "未依規定左轉", "name": "桃園市", "dist": "中壢區", "addr": "環中東路685巷83弄" }, "geometry": { "type": "Point", "coordinates": [ 121.232768, 24.946531 ] } },
    { "type": "Feature", "properties": { "reason": "未依規定左轉", "name": "桃園市", "dist": "中壢區", "addr": "西園路136號" }, "geometry": { "type": "Point", "coordinates": [ 121.234775, 24.981772 ] } },
    { "type": "Feature", "properties": { "reason": "未依規定左轉", "name": "桃園市", "dist": "中壢區", "addr": "中園路西園路二段" }, "geometry": { "type": "Point", "coordinates": [ 121.235782, 24.978304 ] } },
    { "type": "Feature", "properties": { "reason": "未依規定左轉", "name": "桃園市", "dist": "中壢區", "addr": "普強里環中東路二段166號" }, "geometry": { "type": "Point", "coordinates": [ 121.236972, 24.949304 ] } },
    { "type": "Feature", "properties": { "reason": "未依規定左轉", "name": "桃園市", "dist": "中壢區", "addr": "新中北路151巷" }, "geometry": { "type": "Point", "coordinates": [ 121.238082, 24.958288 ] } },
    { "type": "Feature", "properties": { "reason": "未依規定左轉", "name": "桃園市", "dist": "中壢區", "addr": "桃圳路中園路" }, "geometry": { "type": "Point", "coordinates": [ 121.239954, 24.986603 ] } },
    { "type": "Feature", "properties": { "reason": "未依規定左轉", "name": "桃園市", "dist": "中壢區", "addr": "新中北路中原大學游泳池" }, "geometry": { "type": "Point", "coordinates": [ 121.241969, 24.959457 ] } },
    { "type": "Feature", "properties": { "reason": "未依規定左轉", "name": "桃園市", "dist": "中壢區", "addr": "新中北路365號" }, "geometry": { "type": "Point", "coordinates": [ 121.242763, 24.959317 ] } },
    { "type": "Feature", "properties": { "reason": "未依規定左轉", "name": "桃園市", "dist": "中壢區", "addr": "中華路忠義路" }, "geometry": { "type": "Point", "coordinates": [ 121.24424, 24.966875 ] } },
    { "type": "Feature", "properties": { "reason": "未依規定左轉", "name": "桃園市", "dist": "中壢區", "addr": "環中東路655號" }, "geometry": { "type": "Point", "coordinates": [ 121.247351, 24.956408 ] } },
    { "type": "Feature", "properties": { "reason": "未依規定左轉", "name": "桃園市", "dist": "中壢區", "addr": "復興里自強五路5號" }, "geometry": { "type": "Point", "coordinates": [ 121.248024, 24.977522 ] } },
    { "type": "Feature", "properties": { "reason": "未依規定左轉", "name": "桃園市", "dist": "中壢區", "addr": "松江南路松柏路" }, "geometry": { "type": "Point", "coordinates": [ 121.248036, 24.984644 ] } },
    { "type": "Feature", "properties": { "reason": "未依規定左轉", "name": "桃園市", "dist": "中壢區", "addr": "復華街212號" }, "geometry": { "type": "Point", "coordinates": [ 121.248224, 24.97454 ] } },
    { "type": "Feature", "properties": { "reason": "未依規定左轉", "name": "桃園市", "dist": "中壢區", "addr": "仁福里中山東路三段中山東路三段429巷" }, "geometry": { "type": "Point", "coordinates": [ 121.248351, 24.945038 ] } },
    { "type": "Feature", "properties": { "reason": "未依規定左轉", "name": "桃園市", "dist": "中壢區", "addr": "中華路一段716號" }, "geometry": { "type": "Point", "coordinates": [ 121.24844, 24.968948 ] } },
    { "type": "Feature", "properties": { "reason": "未依規定左轉", "name": "桃園市", "dist": "中壢區", "addr": "同慶路58號" }, "geometry": { "type": "Point", "coordinates": [ 121.253078, 24.944321 ] } },
    { "type": "Feature", "properties": { "reason": "未依規定左轉", "name": "桃園市", "dist": "中壢區", "addr": "忠孝路282巷忠孝路246巷29弄" }, "geometry": { "type": "Point", "coordinates": [ 121.255046, 24.979394 ] } },
    { "type": "Feature", "properties": { "reason": "未依規定左轉", "name": "桃園市", "dist": "中壢區", "addr": "五族二街正大街" }, "geometry": { "type": "Point", "coordinates": [ 121.204811, 24.958831 ] } },
    { "type": "Feature", "properties": { "reason": "未依規定左轉", "name": "桃園市", "dist": "中壢區", "addr": "延平路康樂路" }, "geometry": { "type": "Point", "coordinates": [ 121.205396, 24.972151 ] } },
    { "type": "Feature", "properties": { "reason": "未依規定左轉", "name": "桃園市", "dist": "中壢區", "addr": "中北路二段甘肅二街" }, "geometry": { "type": "Point", "coordinates": [ 121.205396, 24.972151 ] } },
    { "type": "Feature", "properties": { "reason": "未依規定左轉", "name": "桃園市", "dist": "中壢區", "addr": "五光一街五常街" }, "geometry": { "type": "Point", "coordinates": [ 121.205396, 24.972151 ] } },
    { "type": "Feature", "properties": { "reason": "未依規定左轉", "name": "桃園市", "dist": "中壢區", "addr": "明德南義民路" }, "geometry": { "type": "Point", "coordinates": [ 121.215787, 24.953299 ] } },
    { "type": "Feature", "properties": { "reason": "未依規定左轉", "name": "桃園市", "dist": "中壢區", "addr": "水青路463號" }, "geometry": { "type": "Point", "coordinates": [ 121.221561, 24.998757 ] } },
    { "type": "Feature", "properties": { "reason": "未依規定左轉", "name": "桃園市", "dist": "中壢區", "addr": "水尾里新生路培英路" }, "geometry": { "type": "Point", "coordinates": [ 121.223898, 24.971141 ] } },
    { "type": "Feature", "properties": { "reason": "未依規定左轉", "name": "桃園市", "dist": "中壢區", "addr": "大德街95號" }, "geometry": { "type": "Point", "coordinates": [ 121.225705, 24.937398 ] } },
    { "type": "Feature", "properties": { "reason": "未依規定左轉", "name": "桃園市", "dist": "中壢區", "addr": "中園路2段72號" }, "geometry": { "type": "Point", "coordinates": [ 121.229196, 25.00309 ] } },
    { "type": "Feature", "properties": { "reason": "未依規定左轉", "name": "桃園市", "dist": "中壢區", "addr": "幸福里延平路環北路" }, "geometry": { "type": "Point", "coordinates": [ 121.229809, 24.963247 ] } },
    { "type": "Feature", "properties": { "reason": "未依規定左轉", "name": "桃園市", "dist": "中壢區", "addr": "成都路潮州路" }, "geometry": { "type": "Point", "coordinates": [ 121.231508, 24.950814 ] } },
    { "type": "Feature", "properties": { "reason": "未依規定左轉", "name": "桃園市", "dist": "中壢區", "addr": "南園二路1巷" }, "geometry": { "type": "Point", "coordinates": [ 121.235196, 24.970707 ] } },
    { "type": "Feature", "properties": { "reason": "未依規定左轉", "name": "桃園市", "dist": "中壢區", "addr": "環中東路二段399巷" }, "geometry": { "type": "Point", "coordinates": [ 121.235288, 24.946211 ] } },
    { "type": "Feature", "properties": { "reason": "未依規定左轉", "name": "桃園市", "dist": "中壢區", "addr": "中園路28之5號" }, "geometry": { "type": "Point", "coordinates": [ 121.237457, 24.965527 ] } },
    { "type": "Feature", "properties": { "reason": "未依規定左轉", "name": "桃園市", "dist": "中壢區", "addr": "新中北路261號" }, "geometry": { "type": "Point", "coordinates": [ 121.2402, 24.959384 ] } },
    { "type": "Feature", "properties": { "reason": "未依規定左轉", "name": "桃園市", "dist": "中壢區", "addr": "自強四路51巷6號" }, "geometry": { "type": "Point", "coordinates": [ 121.241723, 24.972819 ] } },
    { "type": "Feature", "properties": { "reason": "未依規定左轉", "name": "桃園市", "dist": "中壢區", "addr": "環中東路770號" }, "geometry": { "type": "Point", "coordinates": [ 121.244143, 24.954328 ] } },
    { "type": "Feature", "properties": { "reason": "未依規定左轉", "name": "桃園市", "dist": "中壢區", "addr": "忠義里中華路一段自強一路" }, "geometry": { "type": "Point", "coordinates": [ 121.244449, 24.967056 ] } },
    { "type": "Feature", "properties": { "reason": "未依規定左轉", "name": "桃園市", "dist": "中壢區", "addr": "龍興路700巷6號" }, "geometry": { "type": "Point", "coordinates": [ 121.246295, 24.945616 ] } },
    { "type": "Feature", "properties": { "reason": "未依規定左轉", "name": "桃園市", "dist": "中壢區", "addr": "中山東路三段331巷" }, "geometry": { "type": "Point", "coordinates": [ 121.251297, 24.941092 ] } },
    { "type": "Feature", "properties": { "reason": "未依規定左轉", "name": "桃園市", "dist": "中壢區", "addr": "文中路松江北路" }, "geometry": { "type": "Point", "coordinates": [ 121.251933, 24.9893 ] } },
    { "type": "Feature", "properties": { "reason": "未依規定左轉", "name": "桃園市", "dist": "中壢區", "addr": "榮安一街443號" }, "geometry": { "type": "Point", "coordinates": [ 121.254451, 24.965211 ] } },
    { "type": "Feature", "properties": { "reason": "未依規定左轉", "name": "桃園市", "dist": "中壢區", "addr": "中堅里中山東路4段5號" }, "geometry": { "type": "Point", "coordinates": [ 121.254828, 24.936755 ] } },
    { "type": "Feature", "properties": { "reason": "未依規定左轉", "name": "桃園市", "dist": "中壢區", "addr": "永福路榮安十二街" }, "geometry": { "type": "Point", "coordinates": [ 121.255449, 24.961433 ] } },
    { "type": "Feature", "properties": { "reason": "未依規定左轉", "name": "桃園市", "dist": "中壢區", "addr": "內壢里中華路成功路" }, "geometry": { "type": "Point", "coordinates": [ 121.260654, 24.973686 ] } },
    { "type": "Feature", "properties": { "reason": "未依規定左轉", "name": "桃園市", "dist": "中壢區", "addr": "榮安一街榮安四街" }, "geometry": { "type": "Point", "coordinates": [ 121.260875, 24.964428 ] } },
    { "type": "Feature", "properties": { "reason": "未依規定左轉", "name": "桃園市", "dist": "中壢區", "addr": "永福路586號" }, "geometry": { "type": "Point", "coordinates": [ 121.261017, 24.958824 ] } },
    { "type": "Feature", "properties": { "reason": "未依規定左轉", "name": "桃園市", "dist": "中壢區", "addr": "興仁路2段488巷" }, "geometry": { "type": "Point", "coordinates": [ 121.263682, 24.96065 ] } },
    { "type": "Feature", "properties": { "reason": "未依規定左轉", "name": "桃園市", "dist": "中壢區", "addr": "永園路月桃路" }, "geometry": { "type": "Point", "coordinates": [ 121.19768, 25.005564 ] } },
    { "type": "Feature", "properties": { "reason": "未依規定左轉", "name": "桃園市", "dist": "中壢區", "addr": "民族路2段172號" }, "geometry": { "type": "Point", "coordinates": [ 121.203934, 24.957471 ] } },
    { "type": "Feature", "properties": { "reason": "未依規定左轉", "name": "桃園市", "dist": "中壢區", "addr": "中園路福州二街" }, "geometry": { "type": "Point", "coordinates": [ 121.205396, 24.972151 ] } },
    { "type": "Feature", "properties": { "reason": "未依規定左轉", "name": "桃園市", "dist": "中壢區", "addr": "中豐北路高鐵南路三段" }, "geometry": { "type": "Point", "coordinates": [ 121.205396, 24.972151 ] } },
    { "type": "Feature", "properties": { "reason": "未依規定左轉", "name": "桃園市", "dist": "中壢區", "addr": "興和里中豐北路1段興南路" }, "geometry": { "type": "Point", "coordinates": [ 121.217956, 24.974522 ] } },
    { "type": "Feature", "properties": { "reason": "未依規定左轉", "name": "桃園市", "dist": "中壢區", "addr": "中豐北路民權路" }, "geometry": { "type": "Point", "coordinates": [ 121.22113, 24.967197 ] } },
    { "type": "Feature", "properties": { "reason": "未依規定左轉", "name": "桃園市", "dist": "中壢區", "addr": "中山東路1段50號" }, "geometry": { "type": "Point", "coordinates": [ 121.23013, 24.955981 ] } },
    { "type": "Feature", "properties": { "reason": "未依規定左轉", "name": "桃園市", "dist": "中壢區", "addr": "中山東路一段新中北路" }, "geometry": { "type": "Point", "coordinates": [ 121.235576, 24.95621 ] } },
    { "type": "Feature", "properties": { "reason": "未依規定左轉", "name": "桃園市", "dist": "中壢區", "addr": "福州二街中福路200巷" }, "geometry": { "type": "Point", "coordinates": [ 121.235592, 24.968632 ] } },
    { "type": "Feature", "properties": { "reason": "未依規定左轉", "name": "桃園市", "dist": "中壢區", "addr": "龍岡路三段281巷" }, "geometry": { "type": "Point", "coordinates": [ 121.23709, 24.934597 ] } },
    { "type": "Feature", "properties": { "reason": "未依規定左轉", "name": "桃園市", "dist": "中壢區", "addr": "中華路南園二路" }, "geometry": { "type": "Point", "coordinates": [ 121.238213, 24.971851 ] } },
    { "type": "Feature", "properties": { "reason": "未依規定左轉", "name": "桃園市", "dist": "中壢區", "addr": "吉林路東園路" }, "geometry": { "type": "Point", "coordinates": [ 121.239431, 24.978775 ] } },
    { "type": "Feature", "properties": { "reason": "未依規定左轉", "name": "桃園市", "dist": "中壢區", "addr": "中園路憶生電子前路" }, "geometry": { "type": "Point", "coordinates": [ 121.239525, 24.98676 ] } },
    { "type": "Feature", "properties": { "reason": "未依規定左轉", "name": "桃園市", "dist": "中壢區", "addr": "新中北路249巷" }, "geometry": { "type": "Point", "coordinates": [ 121.241694, 24.959829 ] } },
    { "type": "Feature", "properties": { "reason": "未依規定左轉", "name": "桃園市", "dist": "中壢區", "addr": "龍岡圓環" }, "geometry": { "type": "Point", "coordinates": [ 121.243836, 24.925454 ] } },
    { "type": "Feature", "properties": { "reason": "未依規定左轉", "name": "桃園市", "dist": "中壢區", "addr": "普忠路407號" }, "geometry": { "type": "Point", "coordinates": [ 121.249809, 24.957324 ] } },
    { "type": "Feature", "properties": { "reason": "未依規定左轉", "name": "桃園市", "dist": "中壢區", "addr": "榮安一街榮安八街" }, "geometry": { "type": "Point", "coordinates": [ 121.256966, 24.964149 ] } },
    { "type": "Feature", "properties": { "reason": "未依規定左轉", "name": "桃園市", "dist": "中壢區", "addr": "興仁路一段111號" }, "geometry": { "type": "Point", "coordinates": [ 121.261076, 24.970496 ] } },
    { "type": "Feature", "properties": { "reason": "未依規定左轉", "name": "桃園市", "dist": "中壢區", "addr": "興仁路二段126號" }, "geometry": { "type": "Point", "coordinates": [ 121.262806, 24.965996 ] } },
    { "type": "Feature", "properties": { "reason": "未依規定左轉", "name": "桃園市", "dist": "中壢區", "addr": "興仁路二段榮和五街" }, "geometry": { "type": "Point", "coordinates": [ 121.264257, 24.96472 ] } },
    { "type": "Feature", "properties": { "reason": "未依規定左轉", "name": "桃園市", "dist": "中壢區", "addr": "領航北路高鐵南路" }, "geometry": { "type": "Point", "coordinates": [ 121.200677, 25.000587 ] } },
    { "type": "Feature", "properties": { "reason": "未依規定左轉", "name": "桃園市", "dist": "中壢區", "addr": "莒光路民享路" }, "geometry": { "type": "Point", "coordinates": [ 121.205396, 24.972151 ] } },
    { "type": "Feature", "properties": { "reason": "未依規定左轉", "name": "桃園市", "dist": "中壢區", "addr": "高鐵南路一段177號" }, "geometry": { "type": "Point", "coordinates": [ 121.214402, 25.012876 ] } },
    { "type": "Feature", "properties": { "reason": "未依規定左轉", "name": "桃園市", "dist": "中壢區", "addr": "中央西路二段97號" }, "geometry": { "type": "Point", "coordinates": [ 121.215625, 24.95898 ] } },
    { "type": "Feature", "properties": { "reason": "未依規定左轉", "name": "桃園市", "dist": "中壢區", "addr": "青溪路青昇路" }, "geometry": { "type": "Point", "coordinates": [ 121.222586, 25.015497 ] } },
    { "type": "Feature", "properties": { "reason": "未依規定左轉", "name": "桃園市", "dist": "中壢區", "addr": "中正路三光路" }, "geometry": { "type": "Point", "coordinates": [ 121.225784, 24.953998 ] } },
    { "type": "Feature", "properties": { "reason": "未依規定左轉", "name": "桃園市", "dist": "中壢區", "addr": "環北路413號" }, "geometry": { "type": "Point", "coordinates": [ 121.226176, 24.965904 ] } },
    { "type": "Feature", "properties": { "reason": "未依規定左轉", "name": "桃園市", "dist": "中壢區", "addr": "中福路興福街" }, "geometry": { "type": "Point", "coordinates": [ 121.227155, 24.973765 ] } },
    { "type": "Feature", "properties": { "reason": "未依規定左轉", "name": "桃園市", "dist": "中壢區", "addr": "元化中美路" }, "geometry": { "type": "Point", "coordinates": [ 121.227821, 24.957854 ] } },
    { "type": "Feature", "properties": { "reason": "未依規定左轉", "name": "桃園市", "dist": "中壢區", "addr": "延平路環北路" }, "geometry": { "type": "Point", "coordinates": [ 121.228484, 24.962635 ] } },
    { "type": "Feature", "properties": { "reason": "未依規定左轉", "name": "桃園市", "dist": "中壢區", "addr": "溪州街八德路" }, "geometry": { "type": "Point", "coordinates": [ 121.22964, 24.959532 ] } },
    { "type": "Feature", "properties": { "reason": "未依規定左轉", "name": "桃園市", "dist": "中壢區", "addr": "普義路立和路" }, "geometry": { "type": "Point", "coordinates": [ 121.232086, 24.96014 ] } },
    { "type": "Feature", "properties": { "reason": "未依規定左轉", "name": "桃園市", "dist": "中壢區", "addr": "中園路二段306巷" }, "geometry": { "type": "Point", "coordinates": [ 121.232513, 24.995806 ] } },
    { "type": "Feature", "properties": { "reason": "未依規定左轉", "name": "桃園市", "dist": "中壢區", "addr": "中華路二段388號" }, "geometry": { "type": "Point", "coordinates": [ 121.23436, 24.963902 ] } },
    { "type": "Feature", "properties": { "reason": "未依規定左轉", "name": "桃園市", "dist": "中壢區", "addr": "環中東路二段176號" }, "geometry": { "type": "Point", "coordinates": [ 121.239635, 24.952172 ] } },
    { "type": "Feature", "properties": { "reason": "未依規定左轉", "name": "桃園市", "dist": "中壢區", "addr": "中山東路2段170號" }, "geometry": { "type": "Point", "coordinates": [ 121.239711, 24.952368 ] } },
    { "type": "Feature", "properties": { "reason": "未依規定左轉", "name": "桃園市", "dist": "中壢區", "addr": "北園路24號" }, "geometry": { "type": "Point", "coordinates": [ 121.242188, 24.980875 ] } },
    { "type": "Feature", "properties": { "reason": "未依規定左轉", "name": "桃園市", "dist": "中壢區", "addr": "龍岡路三段龍慈路" }, "geometry": { "type": "Point", "coordinates": [ 121.248229, 24.944412 ] } },
    { "type": "Feature", "properties": { "reason": "未依規定左轉", "name": "桃園市", "dist": "中壢區", "addr": "復華九街長樂五街" }, "geometry": { "type": "Point", "coordinates": [ 121.248883, 24.975428 ] } },
    { "type": "Feature", "properties": { "reason": "未依規定左轉", "name": "桃園市", "dist": "中壢區", "addr": "環中東路106巷4弄2號" }, "geometry": { "type": "Point", "coordinates": [ 121.258196, 24.965691 ] } },
    { "type": "Feature", "properties": { "reason": "未依規定左轉", "name": "桃園市", "dist": "中壢區", "addr": "榮民路117號" }, "geometry": { "type": "Point", "coordinates": [ 121.260878, 24.967742 ] } },
    { "type": "Feature", "properties": { "reason": "未依規定左轉", "name": "桃園市", "dist": "中壢區", "addr": "民族路六段高鐵南路六段" }, "geometry": { "type": "Point", "coordinates": [ 121.205396, 24.972151 ] } },
    { "type": "Feature", "properties": { "reason": "未依規定左轉", "name": "桃園市", "dist": "中壢區", "addr": "民權路三段841號" }, "geometry": { "type": "Point", "coordinates": [ 121.207244, 24.983457 ] } },
    { "type": "Feature", "properties": { "reason": "未依規定左轉", "name": "桃園市", "dist": "中壢區", "addr": "中央西路中豐路" }, "geometry": { "type": "Point", "coordinates": [ 121.211168, 24.962072 ] } },
    { "type": "Feature", "properties": { "reason": "未依規定左轉", "name": "桃園市", "dist": "中壢區", "addr": "明德路民權路39巷" }, "geometry": { "type": "Point", "coordinates": [ 121.217458, 24.959957 ] } },
    { "type": "Feature", "properties": { "reason": "未依規定左轉", "name": "桃園市", "dist": "中壢區", "addr": "中豐路中美路" }, "geometry": { "type": "Point", "coordinates": [ 121.22035, 24.960344 ] } },
    { "type": "Feature", "properties": { "reason": "未依規定左轉", "name": "桃園市", "dist": "中壢區", "addr": "中央西路中豐路" }, "geometry": { "type": "Point", "coordinates": [ 121.221724, 24.95855 ] } },
    { "type": "Feature", "properties": { "reason": "未依規定左轉", "name": "桃園市", "dist": "中壢區", "addr": "中北路二段新興路194巷" }, "geometry": { "type": "Point", "coordinates": [ 121.227538, 24.952569 ] } },
    { "type": "Feature", "properties": { "reason": "未依規定左轉", "name": "桃園市", "dist": "中壢區", "addr": "中園路二段89巷" }, "geometry": { "type": "Point", "coordinates": [ 121.23478, 24.990667 ] } },
    { "type": "Feature", "properties": { "reason": "未依規定左轉", "name": "桃園市", "dist": "中壢區", "addr": "環中東路二段福州路" }, "geometry": { "type": "Point", "coordinates": [ 121.235062, 24.94802 ] } },
    { "type": "Feature", "properties": { "reason": "未依規定左轉", "name": "桃園市", "dist": "中壢區", "addr": "中山東路一段中北路二段" }, "geometry": { "type": "Point", "coordinates": [ 121.235504, 24.955573 ] } },
    { "type": "Feature", "properties": { "reason": "未依規定左轉", "name": "桃園市", "dist": "中壢區", "addr": "中北路二段中山東路一段276巷" }, "geometry": { "type": "Point", "coordinates": [ 121.235504, 24.955573 ] } },
    { "type": "Feature", "properties": { "reason": "未依規定左轉", "name": "桃園市", "dist": "中壢區", "addr": "新中北路信陽街" }, "geometry": { "type": "Point", "coordinates": [ 121.237284, 24.957643 ] } },
    { "type": "Feature", "properties": { "reason": "未依規定左轉", "name": "桃園市", "dist": "中壢區", "addr": "龍岡路三段591號" }, "geometry": { "type": "Point", "coordinates": [ 121.241155, 24.928993 ] } },
    { "type": "Feature", "properties": { "reason": "未依規定左轉", "name": "桃園市", "dist": "中壢區", "addr": "中華路忠義路" }, "geometry": { "type": "Point", "coordinates": [ 121.24424, 24.966875 ] } },
    { "type": "Feature", "properties": { "reason": "未依規定左轉", "name": "桃園市", "dist": "中壢區", "addr": "中華路一段122號" }, "geometry": { "type": "Point", "coordinates": [ 121.24957, 24.970663 ] } },
    { "type": "Feature", "properties": { "reason": "未依規定左轉", "name": "桃園市", "dist": "中壢區", "addr": "中山東路三段258號" }, "geometry": { "type": "Point", "coordinates": [ 121.250484, 24.941747 ] } },
    { "type": "Feature", "properties": { "reason": "未依規定左轉", "name": "桃園市", "dist": "中壢區", "addr": "永福路1200號" }, "geometry": { "type": "Point", "coordinates": [ 121.251157, 24.968251 ] } },
    { "type": "Feature", "properties": { "reason": "未依規定左轉", "name": "桃園市", "dist": "中壢區", "addr": "忠孝路155號" }, "geometry": { "type": "Point", "coordinates": [ 121.255012, 24.976417 ] } },
    { "type": "Feature", "properties": { "reason": "未依規定左轉", "name": "桃園市", "dist": "中壢區", "addr": "松勤路松勇路" }, "geometry": { "type": "Point", "coordinates": [ 121.165344, 24.961159 ] } },
    { "type": "Feature", "properties": { "reason": "未依規定左轉", "name": "桃園市", "dist": "中壢區", "addr": "中山東路四段159巷" }, "geometry": { "type": "Point", "coordinates": [ 121.205396, 24.972151 ] } },
    { "type": "Feature", "properties": { "reason": "未依規定左轉", "name": "桃園市", "dist": "中壢區", "addr": "新生路九和一街" }, "geometry": { "type": "Point", "coordinates": [ 121.205396, 24.972151 ] } },
    { "type": "Feature", "properties": { "reason": "未依規定左轉", "name": "桃園市", "dist": "中壢區", "addr": "中豐路中美路" }, "geometry": { "type": "Point", "coordinates": [ 121.21962, 24.960202 ] } },
    { "type": "Feature", "properties": { "reason": "未依規定左轉", "name": "桃園市", "dist": "中壢區", "addr": "元化路元化路271巷" }, "geometry": { "type": "Point", "coordinates": [ 121.22299, 24.9624 ] } },
    { "type": "Feature", "properties": { "reason": "未依規定左轉", "name": "桃園市", "dist": "中壢區", "addr": "金華里新生路九和三街" }, "geometry": { "type": "Point", "coordinates": [ 121.223153, 24.963908 ] } },
    { "type": "Feature", "properties": { "reason": "未依規定左轉", "name": "桃園市", "dist": "中壢區", "addr": "龍岡路一段225號" }, "geometry": { "type": "Point", "coordinates": [ 121.226029, 24.947761 ] } },
    { "type": "Feature", "properties": { "reason": "未依規定左轉", "name": "桃園市", "dist": "中壢區", "addr": "中園路二段543號" }, "geometry": { "type": "Point", "coordinates": [ 121.229241, 25.001446 ] } },
    { "type": "Feature", "properties": { "reason": "未依規定左轉", "name": "桃園市", "dist": "中壢區", "addr": "漢口街東明街" }, "geometry": { "type": "Point", "coordinates": [ 121.229388, 24.953324 ] } },
    { "type": "Feature", "properties": { "reason": "未依規定左轉", "name": "桃園市", "dist": "中壢區", "addr": "龍岡路環中東路" }, "geometry": { "type": "Point", "coordinates": [ 121.229597, 24.944497 ] } },
    { "type": "Feature", "properties": { "reason": "未依規定左轉", "name": "桃園市", "dist": "中壢區", "addr": "龍岡路二段384號" }, "geometry": { "type": "Point", "coordinates": [ 121.230406, 24.940525 ] } },
    { "type": "Feature", "properties": { "reason": "未依規定左轉", "name": "桃園市", "dist": "中壢區", "addr": "環中東路520號" }, "geometry": { "type": "Point", "coordinates": [ 121.231101, 24.945738 ] } },
    { "type": "Feature", "properties": { "reason": "未依規定左轉", "name": "桃園市", "dist": "中壢區", "addr": "普義路217號" }, "geometry": { "type": "Point", "coordinates": [ 121.23118, 24.961466 ] } },
    { "type": "Feature", "properties": { "reason": "未依規定左轉", "name": "桃園市", "dist": "中壢區", "addr": "幸福里福州一街福星五街" }, "geometry": { "type": "Point", "coordinates": [ 121.232835, 24.96588 ] } },
    { "type": "Feature", "properties": { "reason": "未依規定左轉", "name": "桃園市", "dist": "中壢區", "addr": "中北路二段501號" }, "geometry": { "type": "Point", "coordinates": [ 121.234462, 24.955258 ] } },
    { "type": "Feature", "properties": { "reason": "未依規定左轉", "name": "桃園市", "dist": "中壢區", "addr": "中華路二段406號" }, "geometry": { "type": "Point", "coordinates": [ 121.234697, 24.963959 ] } },
    { "type": "Feature", "properties": { "reason": "未依規定左轉", "name": "桃園市", "dist": "中壢區", "addr": "中園育樂路" }, "geometry": { "type": "Point", "coordinates": [ 121.236062, 24.968429 ] } },
    { "type": "Feature", "properties": { "reason": "未依規定左轉", "name": "桃園市", "dist": "中壢區", "addr": "新中北路61號" }, "geometry": { "type": "Point", "coordinates": [ 121.236246, 24.957103 ] } },
    { "type": "Feature", "properties": { "reason": "未依規定左轉", "name": "桃園市", "dist": "中壢區", "addr": "新中北路34巷" }, "geometry": { "type": "Point", "coordinates": [ 121.236311, 24.95626 ] } },
    { "type": "Feature", "properties": { "reason": "未依規定左轉", "name": "桃園市", "dist": "中壢區", "addr": "北園二路北園路" }, "geometry": { "type": "Point", "coordinates": [ 121.242501, 24.986332 ] } },
    { "type": "Feature", "properties": { "reason": "未依規定左轉", "name": "桃園市", "dist": "中壢區", "addr": "龍門街79巷9弄10號" }, "geometry": { "type": "Point", "coordinates": [ 121.242963, 24.930164 ] } },
    { "type": "Feature", "properties": { "reason": "未依規定左轉", "name": "桃園市", "dist": "中壢區", "addr": "龍東十二街龍福一街" }, "geometry": { "type": "Point", "coordinates": [ 121.251998, 24.934371 ] } },
    { "type": "Feature", "properties": { "reason": "未依規定左轉", "name": "桃園市", "dist": "中壢區", "addr": "中山東路三段415號" }, "geometry": { "type": "Point", "coordinates": [ 121.252792, 24.93916 ] } },
    { "type": "Feature", "properties": { "reason": "未依規定左轉", "name": "桃園市", "dist": "中壢區", "addr": "環中東路振興街" }, "geometry": { "type": "Point", "coordinates": [ 121.256919, 24.963216 ] } },
    { "type": "Feature", "properties": { "reason": "未依規定左轉", "name": "桃園市", "dist": "中壢區", "addr": "成章一街101巷福德路129巷" }, "geometry": { "type": "Point", "coordinates": [ 121.257497, 24.97655 ] } },
    { "type": "Feature", "properties": { "reason": "未依規定左轉", "name": "桃園市", "dist": "楊梅區", "addr": "中山北路1段218號" }, "geometry": { "type": "Point", "coordinates": [ 121.154535, 24.908334 ] } },
    { "type": "Feature", "properties": { "reason": "未依規定左轉", "name": "桃園市", "dist": "楊梅區", "addr": "瑞溪里中山北路二段269號" }, "geometry": { "type": "Point", "coordinates": [ 121.173516, 24.910446 ] } },
    { "type": "Feature", "properties": { "reason": "未依規定左轉", "name": "桃園市", "dist": "楊梅區", "addr": "埔心里永美路中興路" }, "geometry": { "type": "Point", "coordinates": [ 121.183816, 24.919197 ] } },
    { "type": "Feature", "properties": { "reason": "未依規定左轉", "name": "桃園市", "dist": "楊梅區", "addr": "楊新路一段386號" }, "geometry": { "type": "Point", "coordinates": [ 121.136672, 24.924211 ] } },
    { "type": "Feature", "properties": { "reason": "未依規定左轉", "name": "桃園市", "dist": "楊梅區", "addr": "中山南路楊湖路" }, "geometry": { "type": "Point", "coordinates": [ 121.137823, 24.907481 ] } },
    { "type": "Feature", "properties": { "reason": "未依規定左轉", "name": "桃園市", "dist": "楊梅區", "addr": "高上里幼獅路二段355號" }, "geometry": { "type": "Point", "coordinates": [ 121.165843, 24.937348 ] } },
    { "type": "Feature", "properties": { "reason": "未依規定左轉", "name": "桃園市", "dist": "楊梅區", "addr": "高榮里榮平路330號" }, "geometry": { "type": "Point", "coordinates": [ 121.172343, 24.938962 ] } },
    { "type": "Feature", "properties": { "reason": "未依規定左轉", "name": "桃園市", "dist": "楊梅區", "addr": "新農街273號" }, "geometry": { "type": "Point", "coordinates": [ 121.173793, 24.912408 ] } },
    { "type": "Feature", "properties": { "reason": "未依規定左轉", "name": "桃園市", "dist": "楊梅區", "addr": "四維里文化街金龍二路" }, "geometry": { "type": "Point", "coordinates": [ 121.184462, 24.914578 ] } },
    { "type": "Feature", "properties": { "reason": "未依規定左轉", "name": "桃園市", "dist": "楊梅區", "addr": "雙榮里民族路五段民族路五段147巷" }, "geometry": { "type": "Point", "coordinates": [ 121.173684, 24.958738 ] } },
    { "type": "Feature", "properties": { "reason": "未依規定左轉", "name": "桃園市", "dist": "楊梅區", "addr": "光華里文化街五守街" }, "geometry": { "type": "Point", "coordinates": [ 121.182967, 24.910881 ] } },
    { "type": "Feature", "properties": { "reason": "未依規定左轉", "name": "桃園市", "dist": "楊梅區", "addr": "水美里楊湖路一段364號" }, "geometry": { "type": "Point", "coordinates": [ 121.133821, 24.912069 ] } },
    { "type": "Feature", "properties": { "reason": "未依規定左轉", "name": "桃園市", "dist": "楊梅區", "addr": "大平里中山南路4之3號" }, "geometry": { "type": "Point", "coordinates": [ 121.138655, 24.907009 ] } },
    { "type": "Feature", "properties": { "reason": "未依規定左轉", "name": "桃園市", "dist": "楊梅區", "addr": "梅獅路一段506號" }, "geometry": { "type": "Point", "coordinates": [ 121.174265, 24.911707 ] } },
    { "type": "Feature", "properties": { "reason": "未依規定左轉", "name": "桃園市", "dist": "楊梅區", "addr": "楊湖路一段654巷" }, "geometry": { "type": "Point", "coordinates": [ 121.127111, 24.913237 ] } },
    { "type": "Feature", "properties": { "reason": "未依規定左轉", "name": "桃園市", "dist": "楊梅區", "addr": "金華街" }, "geometry": { "type": "Point", "coordinates": [ 121.143142, 24.909912 ] } },
    { "type": "Feature", "properties": { "reason": "未依規定左轉", "name": "桃園市", "dist": "楊梅區", "addr": "楊明里新農街357號" }, "geometry": { "type": "Point", "coordinates": [ 121.156636, 24.911447 ] } },
    { "type": "Feature", "properties": { "reason": "未依規定左轉", "name": "桃園市", "dist": "楊梅區", "addr": "新榮里裕榮路230號" }, "geometry": { "type": "Point", "coordinates": [ 121.163707, 24.95616 ] } },
    { "type": "Feature", "properties": { "reason": "未依規定左轉", "name": "桃園市", "dist": "楊梅區", "addr": "台31民有路一段" }, "geometry": { "type": "Point", "coordinates": [ 121.114576, 24.940486 ] } },
    { "type": "Feature", "properties": { "reason": "未依規定左轉", "name": "桃園市", "dist": "楊梅區", "addr": "三湖里楊湖路二段273號" }, "geometry": { "type": "Point", "coordinates": [ 121.114855, 24.912272 ] } },
    { "type": "Feature", "properties": { "reason": "未依規定左轉", "name": "桃園市", "dist": "楊梅區", "addr": "高榮路239巷275弄" }, "geometry": { "type": "Point", "coordinates": [ 121.171898, 24.942617 ] } },
    { "type": "Feature", "properties": { "reason": "未依規定左轉", "name": "桃園市", "dist": "楊梅區", "addr": "上湖里中山南路800巷66號" }, "geometry": { "type": "Point", "coordinates": [ 121.112493, 24.899293 ] } },
    { "type": "Feature", "properties": { "reason": "未依規定左轉", "name": "桃園市", "dist": "楊梅區", "addr": "上田里和平路和平路236段" }, "geometry": { "type": "Point", "coordinates": [ 121.129503, 24.940129 ] } },
    { "type": "Feature", "properties": { "reason": "未依規定左轉", "name": "桃園市", "dist": "楊梅區", "addr": "楊梅里大成路大平街" }, "geometry": { "type": "Point", "coordinates": [ 121.145696, 24.910808 ] } },
    { "type": "Feature", "properties": { "reason": "未依規定左轉", "name": "桃園市", "dist": "楊梅區", "addr": "高上路一段291之1號" }, "geometry": { "type": "Point", "coordinates": [ 121.158067, 24.941296 ] } },
    { "type": "Feature", "properties": { "reason": "未依規定左轉", "name": "桃園市", "dist": "楊梅區", "addr": "楊明里中山北路1段486號" }, "geometry": { "type": "Point", "coordinates": [ 121.161295, 24.909262 ] } },
    { "type": "Feature", "properties": { "reason": "未依規定左轉", "name": "桃園市", "dist": "楊梅區", "addr": "永平路青山三街" }, "geometry": { "type": "Point", "coordinates": [ 121.17322, 24.918774 ] } },
    { "type": "Feature", "properties": { "reason": "未依規定左轉", "name": "桃園市", "dist": "楊梅區", "addr": "青山里幼獅路1段獅二路" }, "geometry": { "type": "Point", "coordinates": [ 121.175398, 24.926059 ] } },
    { "type": "Feature", "properties": { "reason": "未依規定左轉", "name": "桃園市", "dist": "楊梅區", "addr": "瑞坪里梅獅路2段231號" }, "geometry": { "type": "Point", "coordinates": [ 121.177422, 24.906047 ] } },
    { "type": "Feature", "properties": { "reason": "未依規定左轉", "name": "桃園市", "dist": "楊梅區", "addr": "四維里文化街五守街" }, "geometry": { "type": "Point", "coordinates": [ 121.182966, 24.910907 ] } },
    { "type": "Feature", "properties": { "reason": "未依規定左轉", "name": "桃園市", "dist": "楊梅區", "addr": "水美里楊新路一段336號" }, "geometry": { "type": "Point", "coordinates": [ 121.139545, 24.917119 ] } },
    { "type": "Feature", "properties": { "reason": "未依規定左轉", "name": "桃園市", "dist": "楊梅區", "addr": "三民里中山北路二段23巷21號" }, "geometry": { "type": "Point", "coordinates": [ 121.169267, 24.907508 ] } },
    { "type": "Feature", "properties": { "reason": "未依規定左轉", "name": "桃園市", "dist": "楊梅區", "addr": "中山北路二段23巷2號" }, "geometry": { "type": "Point", "coordinates": [ 121.172785, 24.910422 ] } },
    { "type": "Feature", "properties": { "reason": "未依規定左轉", "name": "桃園市", "dist": "楊梅區", "addr": "永寧里校前路校前路319巷" }, "geometry": { "type": "Point", "coordinates": [ 121.145235, 24.90499 ] } },
    { "type": "Feature", "properties": { "reason": "未依規定左轉", "name": "桃園市", "dist": "楊梅區", "addr": "楊江里大成路新農街" }, "geometry": { "type": "Point", "coordinates": [ 121.145594, 24.909153 ] } },
    { "type": "Feature", "properties": { "reason": "未依規定左轉", "name": "桃園市", "dist": "楊梅區", "addr": "楊梅里金德路文德路" }, "geometry": { "type": "Point", "coordinates": [ 121.146001, 24.916997 ] } },
    { "type": "Feature", "properties": { "reason": "未依規定左轉", "name": "桃園市", "dist": "楊梅區", "addr": "環東路298巷環東路" }, "geometry": { "type": "Point", "coordinates": [ 121.157699, 24.907155 ] } },
    { "type": "Feature", "properties": { "reason": "未依規定左轉", "name": "桃園市", "dist": "楊梅區", "addr": "新農街455號" }, "geometry": { "type": "Point", "coordinates": [ 121.159038, 24.912529 ] } },
    { "type": "Feature", "properties": { "reason": "未依規定左轉", "name": "桃園市", "dist": "楊梅區", "addr": "永美路四維路" }, "geometry": { "type": "Point", "coordinates": [ 121.179638, 24.915143 ] } },
    { "type": "Feature", "properties": { "reason": "未依規定左轉", "name": "桃園市", "dist": "楊梅區", "addr": "中興路福德街中興路福德街" }, "geometry": { "type": "Point", "coordinates": [ 121.185991, 24.915563 ] } },
    { "type": "Feature", "properties": { "reason": "未依規定左轉", "name": "桃園市", "dist": "楊梅區", "addr": "秀才里秀才路845巷" }, "geometry": { "type": "Point", "coordinates": [ 121.134192, 24.889176 ] } },
    { "type": "Feature", "properties": { "reason": "未依規定左轉", "name": "桃園市", "dist": "楊梅區", "addr": "四維里文化街222號" }, "geometry": { "type": "Point", "coordinates": [ 121.183608, 24.912172 ] } },
    { "type": "Feature", "properties": { "reason": "未依規定左轉", "name": "桃園市", "dist": "楊梅區", "addr": "水美里楊新路二段1053號" }, "geometry": { "type": "Point", "coordinates": [ 121.135173, 24.920817 ] } },
    { "type": "Feature", "properties": { "reason": "未依規定左轉", "name": "桃園市", "dist": "楊梅區", "addr": "高上里梅高路三陽路" }, "geometry": { "type": "Point", "coordinates": [ 121.145221, 24.933801 ] } },
    { "type": "Feature", "properties": { "reason": "未依規定左轉", "name": "桃園市", "dist": "楊梅區", "addr": "中山北路一段492號" }, "geometry": { "type": "Point", "coordinates": [ 121.161416, 24.909176 ] } },
    { "type": "Feature", "properties": { "reason": "未依規定左轉", "name": "桃園市", "dist": "楊梅區", "addr": "永平里新農街二段782號" }, "geometry": { "type": "Point", "coordinates": [ 121.173352, 24.912305 ] } },
    { "type": "Feature", "properties": { "reason": "未依規定左轉", "name": "桃園市", "dist": "楊梅區", "addr": "楊新北路楊新北路188巷路" }, "geometry": { "type": "Point", "coordinates": [ 121.296967, 24.865842 ] } },
    { "type": "Feature", "properties": { "reason": "未依規定左轉", "name": "桃園市", "dist": "楊梅區", "addr": "瑞原里楊湖路一段楊湖路一段676巷" }, "geometry": { "type": "Point", "coordinates": [ 121.12615, 24.913098 ] } },
    { "type": "Feature", "properties": { "reason": "未依規定左轉", "name": "桃園市", "dist": "楊梅區", "addr": "三民里裕成路33號" }, "geometry": { "type": "Point", "coordinates": [ 121.163288, 24.90591 ] } },
    { "type": "Feature", "properties": { "reason": "未依規定左轉", "name": "桃園市", "dist": "楊梅區", "addr": "瑞溪里瑞溪路一段瑞溪路一段220巷" }, "geometry": { "type": "Point", "coordinates": [ 121.173984, 24.907278 ] } },
    { "type": "Feature", "properties": { "reason": "未依規定左轉", "name": "桃園市", "dist": "楊梅區", "addr": "光華里漢昌街10號" }, "geometry": { "type": "Point", "coordinates": [ 121.182622, 24.916837 ] } },
    { "type": "Feature", "properties": { "reason": "未依規定左轉", "name": "桃園市", "dist": "楊梅區", "addr": "上湖里台31線275北" }, "geometry": { "type": "Point", "coordinates": [ 121.083605, 24.903078 ] } },
    { "type": "Feature", "properties": { "reason": "未依規定左轉", "name": "桃園市", "dist": "楊梅區", "addr": "永平里梅獅路一段479號" }, "geometry": { "type": "Point", "coordinates": [ 121.174081, 24.912742 ] } },
    { "type": "Feature", "properties": { "reason": "未依規定左轉", "name": "桃園市", "dist": "楊梅區", "addr": "梅獅路二段629號" }, "geometry": { "type": "Point", "coordinates": [ 121.184226, 24.89811 ] } },
    { "type": "Feature", "properties": { "reason": "未依規定左轉", "name": "桃園市", "dist": "楊梅區", "addr": "三湖里楊湖路三段608號" }, "geometry": { "type": "Point", "coordinates": [ 121.084119, 24.912493 ] } },
    { "type": "Feature", "properties": { "reason": "未依規定左轉", "name": "桃園市", "dist": "楊梅區", "addr": "永美路四維二路路" }, "geometry": { "type": "Point", "coordinates": [ 121.136672, 24.924211 ] } },
    { "type": "Feature", "properties": { "reason": "未依規定左轉", "name": "桃園市", "dist": "楊梅區", "addr": "大平里秀才路203號" }, "geometry": { "type": "Point", "coordinates": [ 121.140845, 24.901152 ] } },
    { "type": "Feature", "properties": { "reason": "未依規定左轉", "name": "桃園市", "dist": "楊梅區", "addr": "梅新里新成路新成路197巷" }, "geometry": { "type": "Point", "coordinates": [ 121.14698, 24.908402 ] } },
    { "type": "Feature", "properties": { "reason": "未依規定左轉", "name": "桃園市", "dist": "楊梅區", "addr": "裕新里裕成南路288號" }, "geometry": { "type": "Point", "coordinates": [ 121.15826, 24.899876 ] } },
    { "type": "Feature", "properties": { "reason": "未依規定左轉", "name": "桃園市", "dist": "楊梅區", "addr": "中山北路二段梅獅路二段" }, "geometry": { "type": "Point", "coordinates": [ 121.174562, 24.911472 ] } },
    { "type": "Feature", "properties": { "reason": "未依規定左轉", "name": "桃園市", "dist": "楊梅區", "addr": "瑞塘里瑞福街萬大路115巷" }, "geometry": { "type": "Point", "coordinates": [ 121.179414, 24.91061 ] } },
    { "type": "Feature", "properties": { "reason": "未依規定左轉", "name": "桃園市", "dist": "楊梅區", "addr": "梅獅路一段幼獅路一段" }, "geometry": { "type": "Point", "coordinates": [ 121.183008, 24.922646 ] } },
    { "type": "Feature", "properties": { "reason": "未依規定左轉", "name": "桃園市", "dist": "楊梅區", "addr": "光華里文化街漢昌街" }, "geometry": { "type": "Point", "coordinates": [ 121.184596, 24.915443 ] } },
    { "type": "Feature", "properties": { "reason": "未依規定左轉", "name": "桃園市", "dist": "楊梅區", "addr": "大平街大模街" }, "geometry": { "type": "Point", "coordinates": [ 121.144674, 24.910883 ] } },
    { "type": "Feature", "properties": { "reason": "未依規定左轉", "name": "桃園市", "dist": "楊梅區", "addr": "楊梅里梅高路新梅五街" }, "geometry": { "type": "Point", "coordinates": [ 121.14585, 24.918284 ] } },
    { "type": "Feature", "properties": { "reason": "未依規定左轉", "name": "桃園市", "dist": "楊梅區", "addr": "新成路新農街" }, "geometry": { "type": "Point", "coordinates": [ 121.146841, 24.909189 ] } },
    { "type": "Feature", "properties": { "reason": "未依規定左轉", "name": "桃園市", "dist": "楊梅區", "addr": "中山里環東路行善路" }, "geometry": { "type": "Point", "coordinates": [ 121.153396, 24.903857 ] } },
    { "type": "Feature", "properties": { "reason": "未依規定左轉", "name": "桃園市", "dist": "楊梅區", "addr": "永平里新農街2段三元街" }, "geometry": { "type": "Point", "coordinates": [ 121.172512, 24.912213 ] } },
    { "type": "Feature", "properties": { "reason": "未依規定左轉", "name": "桃園市", "dist": "楊梅區", "addr": "富豐里富民街" }, "geometry": { "type": "Point", "coordinates": [ 121.068778, 24.923629 ] } },
    { "type": "Feature", "properties": { "reason": "未依規定左轉", "name": "桃園市", "dist": "楊梅區", "addr": "楊湖路1段532號" }, "geometry": { "type": "Point", "coordinates": [ 121.129439, 24.913004 ] } },
    { "type": "Feature", "properties": { "reason": "未依規定左轉", "name": "桃園市", "dist": "楊梅區", "addr": "楊新路2段494號" }, "geometry": { "type": "Point", "coordinates": [ 121.130029, 24.92575 ] } },
    { "type": "Feature", "properties": { "reason": "未依規定左轉", "name": "桃園市", "dist": "楊梅區", "addr": "新農街660號" }, "geometry": { "type": "Point", "coordinates": [ 121.164731, 24.913178 ] } },
    { "type": "Feature", "properties": { "reason": "未依規定左轉", "name": "桃園市", "dist": "楊梅區", "addr": "瑞溪路一段79號" }, "geometry": { "type": "Point", "coordinates": [ 121.168295, 24.907118 ] } },
    { "type": "Feature", "properties": { "reason": "未依規定左轉", "name": "桃園市", "dist": "楊梅區", "addr": "文化街85號" }, "geometry": { "type": "Point", "coordinates": [ 121.184429, 24.914551 ] } },
    { "type": "Feature", "properties": { "reason": "未依規定左轉", "name": "桃園市", "dist": "楊梅區", "addr": "員本里民富路三段540號" }, "geometry": { "type": "Point", "coordinates": [ 121.094056, 24.933105 ] } },
    { "type": "Feature", "properties": { "reason": "未依規定左轉", "name": "桃園市", "dist": "楊梅區", "addr": "楊新路梅高路" }, "geometry": { "type": "Point", "coordinates": [ 121.143437, 24.913603 ] } },
    { "type": "Feature", "properties": { "reason": "未依規定左轉", "name": "桃園市", "dist": "楊梅區", "addr": "中山里新農街自強街" }, "geometry": { "type": "Point", "coordinates": [ 121.154351, 24.910045 ] } },
    { "type": "Feature", "properties": { "reason": "未依規定左轉", "name": "桃園市", "dist": "楊梅區", "addr": "高上里幼獅路二段5號" }, "geometry": { "type": "Point", "coordinates": [ 121.171882, 24.931422 ] } },
    { "type": "Feature", "properties": { "reason": "未依規定左轉", "name": "桃園市", "dist": "楊梅區", "addr": "中山北路2段351巷萬福街" }, "geometry": { "type": "Point", "coordinates": [ 121.176378, 24.911233 ] } },
    { "type": "Feature", "properties": { "reason": "未依規定左轉", "name": "桃園市", "dist": "楊梅區", "addr": "梅獅路1段幼獅路" }, "geometry": { "type": "Point", "coordinates": [ 121.183169, 24.922734 ] } },
    { "type": "Feature", "properties": { "reason": "未依規定左轉", "name": "桃園市", "dist": "楊梅區", "addr": "梅溪里新農街二段209巷79號" }, "geometry": { "type": "Point", "coordinates": [ 121.169136, 24.916312 ] } },
    { "type": "Feature", "properties": { "reason": "未依規定左轉", "name": "桃園市", "dist": "楊梅區", "addr": "雙榮里雙榮路民族路五段107巷1弄" }, "geometry": { "type": "Point", "coordinates": [ 121.176939, 24.958833 ] } },
    { "type": "Feature", "properties": { "reason": "未依規定左轉", "name": "桃園市", "dist": "楊梅區", "addr": "梅獅路二段156巷6號" }, "geometry": { "type": "Point", "coordinates": [ 121.182311, 24.89834 ] } },
    { "type": "Feature", "properties": { "reason": "未依規定左轉", "name": "桃園市", "dist": "楊梅區", "addr": "中山南路598號" }, "geometry": { "type": "Point", "coordinates": [ 121.127645, 24.903948 ] } },
    { "type": "Feature", "properties": { "reason": "未依規定左轉", "name": "桃園市", "dist": "楊梅區", "addr": "高山里三陽路楊" }, "geometry": { "type": "Point", "coordinates": [ 121.143767, 24.934569 ] } },
    { "type": "Feature", "properties": { "reason": "未依規定左轉", "name": "桃園市", "dist": "楊梅區", "addr": "大成路162號" }, "geometry": { "type": "Point", "coordinates": [ 121.145826, 24.911799 ] } },
    { "type": "Feature", "properties": { "reason": "未依規定左轉", "name": "桃園市", "dist": "楊梅區", "addr": "中山里環東路金山街" }, "geometry": { "type": "Point", "coordinates": [ 121.157192, 24.909637 ] } },
    { "type": "Feature", "properties": { "reason": "未依規定左轉", "name": "桃園市", "dist": "楊梅區", "addr": "三元街新農街" }, "geometry": { "type": "Point", "coordinates": [ 121.167666, 24.913091 ] } },
    { "type": "Feature", "properties": { "reason": "未依規定左轉", "name": "桃園市", "dist": "楊梅區", "addr": "水美里新梅七街18號" }, "geometry": { "type": "Point", "coordinates": [ 121.144175, 24.916278 ] } },
    { "type": "Feature", "properties": { "reason": "未依規定左轉", "name": "桃園市", "dist": "楊梅區", "addr": "校前路149號" }, "geometry": { "type": "Point", "coordinates": [ 121.14816, 24.903361 ] } },
    { "type": "Feature", "properties": { "reason": "未依規定左轉", "name": "桃園市", "dist": "楊梅區", "addr": "永寧里校前路162號" }, "geometry": { "type": "Point", "coordinates": [ 121.148198, 24.90318 ] } },
    { "type": "Feature", "properties": { "reason": "未依規定左轉", "name": "桃園市", "dist": "楊梅區", "addr": "高山里高獅路818號" }, "geometry": { "type": "Point", "coordinates": [ 121.16641, 24.923638 ] } },
    { "type": "Feature", "properties": { "reason": "未依規定左轉", "name": "桃園市", "dist": "楊梅區", "addr": "光華里文化街169號" }, "geometry": { "type": "Point", "coordinates": [ 121.183856, 24.912585 ] } },
    { "type": "Feature", "properties": { "reason": "未依規定左轉", "name": "桃園市", "dist": "楊梅區", "addr": "永寧里環南路永寧路" }, "geometry": { "type": "Point", "coordinates": [ 121.144627, 24.902141 ] } },
    { "type": "Feature", "properties": { "reason": "未依規定左轉", "name": "桃園市", "dist": "楊梅區", "addr": "老莊路133號" }, "geometry": { "type": "Point", "coordinates": [ 121.153901, 24.89649 ] } },
    { "type": "Feature", "properties": { "reason": "未依規定左轉", "name": "桃園市", "dist": "楊梅區", "addr": "高獅路高獅路863巷路" }, "geometry": { "type": "Point", "coordinates": [ 121.158602, 24.925869 ] } },
    { "type": "Feature", "properties": { "reason": "未依規定左轉", "name": "桃園市", "dist": "楊梅區", "addr": "高上里幼獅路二段幼獅路二段218巷" }, "geometry": { "type": "Point", "coordinates": [ 121.169742, 24.934827 ] } },
    { "type": "Feature", "properties": { "reason": "未依規定左轉", "name": "桃園市", "dist": "楊梅區", "addr": "永平里中山北路二段366巷22號" }, "geometry": { "type": "Point", "coordinates": [ 121.175374, 24.913305 ] } },
    { "type": "Feature", "properties": { "reason": "未依規定左轉", "name": "桃園市", "dist": "楊梅區", "addr": "中興路145號" }, "geometry": { "type": "Point", "coordinates": [ 121.18631, 24.914874 ] } },
    { "type": "Feature", "properties": { "reason": "未依規定左轉", "name": "桃園市", "dist": "楊梅區", "addr": "和平路541巷" }, "geometry": { "type": "Point", "coordinates": [ 121.132014, 24.942766 ] } },
    { "type": "Feature", "properties": { "reason": "未依規定左轉", "name": "桃園市", "dist": "楊梅區", "addr": "楊湖路一段38號" }, "geometry": { "type": "Point", "coordinates": [ 121.13961, 24.90806 ] } },
    { "type": "Feature", "properties": { "reason": "未依規定左轉", "name": "桃園市", "dist": "楊梅區", "addr": "中山里新農街自立街" }, "geometry": { "type": "Point", "coordinates": [ 121.151763, 24.909661 ] } },
    { "type": "Feature", "properties": { "reason": "未依規定左轉", "name": "桃園市", "dist": "楊梅區", "addr": "埔心里永美路中興路" }, "geometry": { "type": "Point", "coordinates": [ 121.183816, 24.919197 ] } },
    { "type": "Feature", "properties": { "reason": "未依規定左轉", "name": "桃園市", "dist": "楊梅區", "addr": "仁美里福德街187號" }, "geometry": { "type": "Point", "coordinates": [ 121.186335, 24.915581 ] } },
    { "type": "Feature", "properties": { "reason": "未依規定左轉", "name": "桃園市", "dist": "楊梅區", "addr": "楊梅里新成路光復北街" }, "geometry": { "type": "Point", "coordinates": [ 121.14688, 24.911975 ] } },
    { "type": "Feature", "properties": { "reason": "未依規定左轉", "name": "桃園市", "dist": "楊梅區", "addr": "高山里高獅路130號" }, "geometry": { "type": "Point", "coordinates": [ 121.15058, 24.922954 ] } },
    { "type": "Feature", "properties": { "reason": "未依規定左轉", "name": "桃園市", "dist": "楊梅區", "addr": "高上里幼獅路3段116巷3801號" }, "geometry": { "type": "Point", "coordinates": [ 121.151068, 24.939069 ] } },
    { "type": "Feature", "properties": { "reason": "未依規定左轉", "name": "桃園市", "dist": "楊梅區", "addr": "頭州里民族路六段台31線路" }, "geometry": { "type": "Point", "coordinates": [ 121.161703, 24.961546 ] } },
    { "type": "Feature", "properties": { "reason": "未依規定左轉", "name": "桃園市", "dist": "楊梅區", "addr": "梅溪里新農街二段三元街" }, "geometry": { "type": "Point", "coordinates": [ 121.167655, 24.9131 ] } },
    { "type": "Feature", "properties": { "reason": "未依規定左轉", "name": "桃園市", "dist": "楊梅區", "addr": "民族路5段29巷31號" }, "geometry": { "type": "Point", "coordinates": [ 121.176095, 24.959079 ] } },
    { "type": "Feature", "properties": { "reason": "未依規定左轉", "name": "桃園市", "dist": "楊梅區", "addr": "永美路506號" }, "geometry": { "type": "Point", "coordinates": [ 121.177735, 24.913745 ] } },
    { "type": "Feature", "properties": { "reason": "未依規定左轉", "name": "桃園市", "dist": "楊梅區", "addr": "信義街50號" }, "geometry": { "type": "Point", "coordinates": [ 121.083624, 24.935766 ] } },
    { "type": "Feature", "properties": { "reason": "未依規定左轉", "name": "桃園市", "dist": "楊梅區", "addr": "大平里中山南路中山南路300巷" }, "geometry": { "type": "Point", "coordinates": [ 121.132722, 24.906007 ] } },
    { "type": "Feature", "properties": { "reason": "未依規定左轉", "name": "桃園市", "dist": "楊梅區", "addr": "高上路2段61巷" }, "geometry": { "type": "Point", "coordinates": [ 121.143258, 24.947936 ] } },
    { "type": "Feature", "properties": { "reason": "未依規定左轉", "name": "桃園市", "dist": "楊梅區", "addr": "水美里楊新路梅高路" }, "geometry": { "type": "Point", "coordinates": [ 121.143437, 24.913603 ] } },
    { "type": "Feature", "properties": { "reason": "未依規定左轉", "name": "桃園市", "dist": "楊梅區", "addr": "大平里新江路218巷29弄" }, "geometry": { "type": "Point", "coordinates": [ 121.143983, 24.892944 ] } },
    { "type": "Feature", "properties": { "reason": "未依規定左轉", "name": "桃園市", "dist": "楊梅區", "addr": "環南路99巷" }, "geometry": { "type": "Point", "coordinates": [ 121.147465, 24.901553 ] } },
    { "type": "Feature", "properties": { "reason": "未依規定左轉", "name": "桃園市", "dist": "楊梅區", "addr": "大同里楊新北路楊新北路93巷" }, "geometry": { "type": "Point", "coordinates": [ 121.150768, 24.912673 ] } },
    { "type": "Feature", "properties": { "reason": "未依規定左轉", "name": "桃園市", "dist": "楊梅區", "addr": "永寧里校前路345號" }, "geometry": { "type": "Point", "coordinates": [ 121.151386, 24.898296 ] } },
    { "type": "Feature", "properties": { "reason": "未依規定左轉", "name": "桃園市", "dist": "楊梅區", "addr": "新農街2段181號" }, "geometry": { "type": "Point", "coordinates": [ 121.171143, 24.912532 ] } },
    { "type": "Feature", "properties": { "reason": "未依規定左轉", "name": "桃園市", "dist": "楊梅區", "addr": "中山北路二段梅獅路" }, "geometry": { "type": "Point", "coordinates": [ 121.1745, 24.911388 ] } },
    { "type": "Feature", "properties": { "reason": "未依規定左轉", "name": "桃園市", "dist": "楊梅區", "addr": "高鐵南路7段和平路180巷119弄" }, "geometry": { "type": "Point", "coordinates": [ 121.123458, 24.944025 ] } },
    { "type": "Feature", "properties": { "reason": "未依規定左轉", "name": "桃園市", "dist": "楊梅區", "addr": "水美里新梅一街新富七街" }, "geometry": { "type": "Point", "coordinates": [ 121.136672, 24.924211 ] } },
    { "type": "Feature", "properties": { "reason": "未依規定左轉", "name": "桃園市", "dist": "楊梅區", "addr": "梅獅路一段萬福街" }, "geometry": { "type": "Point", "coordinates": [ 121.136672, 24.924211 ] } },
    { "type": "Feature", "properties": { "reason": "未依規定左轉", "name": "桃園市", "dist": "楊梅區", "addr": "福德街鎮德路" }, "geometry": { "type": "Point", "coordinates": [ 121.136672, 24.924211 ] } },
    { "type": "Feature", "properties": { "reason": "未依規定左轉", "name": "桃園市", "dist": "楊梅區", "addr": "新農街439號" }, "geometry": { "type": "Point", "coordinates": [ 121.159769, 24.912702 ] } },
    { "type": "Feature", "properties": { "reason": "未依規定左轉", "name": "桃園市", "dist": "楊梅區", "addr": "瑞塘里中山北路2段373號" }, "geometry": { "type": "Point", "coordinates": [ 121.176254, 24.912561 ] } },
    { "type": "Feature", "properties": { "reason": "未依規定左轉", "name": "桃園市", "dist": "楊梅區", "addr": "瑞塘里萬大路萬大路116巷" }, "geometry": { "type": "Point", "coordinates": [ 121.178298, 24.910289 ] } },
    { "type": "Feature", "properties": { "reason": "未依規定左轉", "name": "桃園市", "dist": "楊梅區", "addr": "四維里文化街212號" }, "geometry": { "type": "Point", "coordinates": [ 121.183607, 24.912387 ] } },
    { "type": "Feature", "properties": { "reason": "未依規定左轉", "name": "桃園市", "dist": "楊梅區", "addr": "永寧里校前路民權街" }, "geometry": { "type": "Point", "coordinates": [ 121.136672, 24.924211 ] } },
    { "type": "Feature", "properties": { "reason": "未依規定左轉", "name": "桃園市", "dist": "楊梅區", "addr": "新農街371號" }, "geometry": { "type": "Point", "coordinates": [ 121.156851, 24.911904 ] } },
    { "type": "Feature", "properties": { "reason": "未依規定左轉", "name": "桃園市", "dist": "楊梅區", "addr": "幼獅路三段高獅路365巷" }, "geometry": { "type": "Point", "coordinates": [ 121.158592, 24.933628 ] } },
    { "type": "Feature", "properties": { "reason": "未依規定左轉", "name": "桃園市", "dist": "楊梅區", "addr": "梅獅路2段250號" }, "geometry": { "type": "Point", "coordinates": [ 121.177073, 24.905771 ] } },
    { "type": "Feature", "properties": { "reason": "未依規定左轉", "name": "桃園市", "dist": "楊梅區", "addr": "梅獅路1段16號" }, "geometry": { "type": "Point", "coordinates": [ 121.18245, 24.92177 ] } },
    { "type": "Feature", "properties": { "reason": "未依規定左轉", "name": "桃園市", "dist": "楊梅區", "addr": "仁美里福德街187號" }, "geometry": { "type": "Point", "coordinates": [ 121.186571, 24.915633 ] } },
    { "type": "Feature", "properties": { "reason": "未依規定左轉", "name": "桃園市", "dist": "楊梅區", "addr": "三湖里泰圳街湖山街" }, "geometry": { "type": "Point", "coordinates": [ 121.118367, 24.909928 ] } },
    { "type": "Feature", "properties": { "reason": "未依規定左轉", "name": "桃園市", "dist": "楊梅區", "addr": "梅高路高獅路" }, "geometry": { "type": "Point", "coordinates": [ 121.136672, 24.924211 ] } },
    { "type": "Feature", "properties": { "reason": "未依規定左轉", "name": "桃園市", "dist": "楊梅區", "addr": "仁美里中興路253號" }, "geometry": { "type": "Point", "coordinates": [ 121.187168, 24.913457 ] } },
    { "type": "Feature", "properties": { "reason": "未依規定左轉", "name": "桃園市", "dist": "楊梅區", "addr": "楊江里大成路光華街" }, "geometry": { "type": "Point", "coordinates": [ 121.14555, 24.908219 ] } },
    { "type": "Feature", "properties": { "reason": "未依規定左轉", "name": "桃園市", "dist": "楊梅區", "addr": "三民里中山北路2段87巷中山北路2段87巷" }, "geometry": { "type": "Point", "coordinates": [ 121.169282, 24.908274 ] } },
    { "type": "Feature", "properties": { "reason": "未依規定左轉", "name": "桃園市", "dist": "楊梅區", "addr": "民族路5段335號" }, "geometry": { "type": "Point", "coordinates": [ 121.169683, 24.958306 ] } },
    { "type": "Feature", "properties": { "reason": "未依規定左轉", "name": "桃園市", "dist": "楊梅區", "addr": "三民里瑞溪路一段三民路" }, "geometry": { "type": "Point", "coordinates": [ 121.170214, 24.907048 ] } },
    { "type": "Feature", "properties": { "reason": "未依規定左轉", "name": "桃園市", "dist": "楊梅區", "addr": "瑞塘里萬大路152巷萬大路116巷" }, "geometry": { "type": "Point", "coordinates": [ 121.178105, 24.909189 ] } },
    { "type": "Feature", "properties": { "reason": "未依規定左轉", "name": "桃園市", "dist": "楊梅區", "addr": "富民街339巷50弄12號" },